[{"name":"Malishevë","cityAsci":"Malisheve","lat":42.4822,"long":20.7458,"country":"Kosovo","iso2":"XK","iso3":"XKS","region":"Malishevë","capital":"admin","id":1901597212},{"name":"Prizren","cityAsci":"Prizren","lat":42.2139,"long":20.7397,"country":"Kosovo","iso2":"XK","iso3":"XKS","region":"Prizren","capital":"admin","id":1901360309},{"name":"Zubin Potok","cityAsci":"Zubin Potok","lat":42.9144,"long":20.6897,"country":"Kosovo","iso2":"XK","iso3":"XKS","region":"Zubin Potok","capital":"admin","id":1901608808},{"name":"Kamenicë","cityAsci":"Kamenice","lat":42.5781,"long":21.5803,"country":"Kosovo","iso2":"XK","iso3":"XKS","region":"Kamenicë","capital":"admin","id":1901851592},{"name":"Viti","cityAsci":"Viti","lat":42.3214,"long":21.3583,"country":"Kosovo","iso2":"XK","iso3":"XKS","region":"Viti","capital":"admin","id":1901328795},{"name":"Shtërpcë","cityAsci":"Shterpce","lat":42.2394,"long":21.0272,"country":"Kosovo","iso2":"XK","iso3":"XKS","region":"Shtërpcë","capital":"admin","id":1901828239},{"name":"Shtime","cityAsci":"Shtime","lat":42.4331,"long":21.0397,"country":"Kosovo","iso2":"XK","iso3":"XKS","region":"Shtime","capital":"admin","id":1901598505},{"name":"Vushtrri","cityAsci":"Vushtrri","lat":42.8231,"long":20.9675,"country":"Kosovo","iso2":"XK","iso3":"XKS","region":"Vushtrri","capital":"admin","id":1901107642},{"name":"Dragash","cityAsci":"Dragash","lat":42.0265,"long":20.6533,"country":"Kosovo","iso2":"XK","iso3":"XKS","region":"Dragash","capital":"admin","id":1901112530},{"name":"Podujevë","cityAsci":"Podujeve","lat":42.9111,"long":21.1899,"country":"Kosovo","iso2":"XK","iso3":"XKS","region":"Podujevë","capital":"admin","id":1901550082},{"name":"Fushë Kosovë","cityAsci":"Fushe Kosove","lat":42.6639,"long":21.0961,"country":"Kosovo","iso2":"XK","iso3":"XKS","region":"Fushë Kosovë","capital":"admin","id":1901134407},{"name":"Kaçanik","cityAsci":"Kacanik","lat":42.2319,"long":21.2594,"country":"Kosovo","iso2":"XK","iso3":"XKS","region":"Kaçanik","capital":"admin","id":1901200321},{"name":"Klinë","cityAsci":"Kline","lat":42.6217,"long":20.5778,"country":"Kosovo","iso2":"XK","iso3":"XKS","region":"Klinë","capital":"admin","id":1901230162},{"name":"Leposaviq","cityAsci":"Leposaviq","lat":43.1039,"long":20.8028,"country":"Kosovo","iso2":"XK","iso3":"XKS","region":"Leposaviq","capital":"admin","id":1901974597},{"name":"Pejë","cityAsci":"Peje","lat":42.66,"long":20.2922,"country":"Kosovo","iso2":"XK","iso3":"XKS","region":"Pejë","capital":"admin","id":1901339694},{"name":"Rahovec","cityAsci":"Rahovec","lat":42.3994,"long":20.6547,"country":"Kosovo","iso2":"XK","iso3":"XKS","region":"Rahovec","capital":"admin","id":1901336358},{"name":"Gjilan","cityAsci":"Gjilan","lat":42.4689,"long":21.4633,"country":"Kosovo","iso2":"XK","iso3":"XKS","region":"Gjilan","capital":"admin","id":1901235642},{"name":"Lipjan","cityAsci":"Lipjan","lat":42.5217,"long":21.1258,"country":"Kosovo","iso2":"XK","iso3":"XKS","region":"Lipjan","capital":"admin","id":1901682048},{"name":"Obiliq","cityAsci":"Obiliq","lat":42.6869,"long":21.0703,"country":"Kosovo","iso2":"XK","iso3":"XKS","region":"Obiliq","capital":"admin","id":1901102771},{"name":"Gjakovë","cityAsci":"Gjakove","lat":42.3803,"long":20.4308,"country":"Kosovo","iso2":"XK","iso3":"XKS","region":"Gjakovë","capital":"admin","id":1901089874},{"name":"Pristina","cityAsci":"Pristina","lat":42.6666,"long":21.1724,"country":"Kosovo","iso2":"XK","iso3":"XKS","region":"Prishtinë","capital":"primary","id":1901760068},{"name":"Deçan","cityAsci":"Decan","lat":42.5378,"long":20.2911,"country":"Kosovo","iso2":"XK","iso3":"XKS","region":"Deçan","capital":"admin","id":1901189818},{"name":"Istog","cityAsci":"Istog","lat":42.7808,"long":20.4875,"country":"Kosovo","iso2":"XK","iso3":"XKS","region":"Istog","capital":"admin","id":1901248770},{"name":"Hani i Elezit","cityAsci":"Hani i Elezit","lat":42.15,"long":21.2967,"country":"Kosovo","iso2":"XK","iso3":"XKS","region":"Hani i Elezit","capital":"admin","id":1901964789},{"name":"Junik","cityAsci":"Junik","lat":42.4758,"long":20.2772,"country":"Kosovo","iso2":"XK","iso3":"XKS","region":"Junik","capital":"admin","id":1901930204},{"name":"Kllokot","cityAsci":"Kllokot","lat":42.3714,"long":21.3744,"country":"Kosovo","iso2":"XK","iso3":"XKS","region":"Kllokot","capital":"admin","id":1901445768},{"name":"Mamushë","cityAsci":"Mamushe","lat":42.3308,"long":20.7269,"country":"Kosovo","iso2":"XK","iso3":"XKS","region":"Mamushë","capital":"admin","id":1901042958},{"name":"Partesh","cityAsci":"Partesh","lat":42.4019,"long":21.4336,"country":"Kosovo","iso2":"XK","iso3":"XKS","region":"Partesh","capital":"admin","id":1901909986},{"name":"Ranillug","cityAsci":"Ranillug","lat":42.4922,"long":21.5989,"country":"Kosovo","iso2":"XK","iso3":"XKS","region":"Ranillug","capital":"admin","id":1901029901},{"name":"Ferizaj","cityAsci":"Ferizaj","lat":42.3706,"long":21.1553,"country":"Kosovo","iso2":"XK","iso3":"XKS","region":"Ferizaj","capital":"admin","id":1901875540},{"name":"Zveçan","cityAsci":"Zvecan","lat":42.9075,"long":20.8403,"country":"Kosovo","iso2":"XK","iso3":"XKS","region":"Zveçan","capital":"admin","id":1901208362},{"name":"Suharekë","cityAsci":"Suhareke","lat":42.3586,"long":20.825,"country":"Kosovo","iso2":"XK","iso3":"XKS","region":"Suharekë","capital":"admin","id":1901918563},{"name":"Gllogovc","cityAsci":"Gllogovc","lat":42.6283,"long":20.8939,"country":"Kosovo","iso2":"XK","iso3":"XKS","region":"Gllogovc","capital":"admin","id":1901031751},{"name":"Mitrovicë","cityAsci":"Mitrovice","lat":42.8833,"long":20.8667,"country":"Kosovo","iso2":"XK","iso3":"XKS","capital":"admin","id":1901138430},{"name":"Skenderaj","cityAsci":"Skenderaj","lat":42.7467,"long":20.7886,"country":"Kosovo","iso2":"XK","iso3":"XKS","region":"Skenderaj","capital":"admin","id":1901259570},{"name":"Novobërdë","cityAsci":"Novoberde","lat":42.6178,"long":21.4197,"country":"Kosovo","iso2":"XK","iso3":"XKS","region":"Novobërdë","capital":"admin","id":1901684676},{"name":"Graçanicë","cityAsci":"Gracanice","lat":42.6011,"long":21.1958,"country":"Kosovo","iso2":"XK","iso3":"XKS","region":"Graçanicë","capital":"admin","id":1901753443},{"name":"Longyearbyen","cityAsci":"Longyearbyen","lat":78.2167,"long":15.6333,"country":"Svalbard","iso2":"XR","iso3":"XSV","capital":"primary","id":1930654114},{"name":"Sanaa","cityAsci":"Sanaa","lat":15.3547,"long":44.2066,"country":"Yemen","iso2":"YE","iso3":"YEM","region":"Amānat al ‘Āşimah","capital":"primary","population":2008000,"id":1887750814},{"name":"Marib","cityAsci":"Marib","lat":15.421,"long":45.334,"country":"Yemen","iso2":"YE","iso3":"YEM","region":"Ma’rib","capital":"admin","population":16794,"id":1887153216},{"name":"Al Jabīn","cityAsci":"Al Jabin","lat":14.704,"long":43.599,"country":"Yemen","iso2":"YE","iso3":"YEM","region":"Raymah","capital":"admin","id":1887910100},{"name":"Hajjah","cityAsci":"Hajjah","lat":15.6917,"long":43.6021,"country":"Yemen","iso2":"YE","iso3":"YEM","region":"Ḩajjah","capital":"admin","population":208287,"id":1887522445},{"name":"Ibb","cityAsci":"Ibb","lat":13.9759,"long":44.1709,"country":"Yemen","iso2":"YE","iso3":"YEM","region":"Ibb","capital":"admin","population":234837,"id":1887321491},{"name":"Al Hudaydah","cityAsci":"Al Hudaydah","lat":14.7979,"long":42.953,"country":"Yemen","iso2":"YE","iso3":"YEM","region":"Al Ḩudaydah","capital":"admin","population":780000,"id":1887984890},{"name":"Lahij","cityAsci":"Lahij","lat":13.0582,"long":44.8838,"country":"Yemen","iso2":"YE","iso3":"YEM","region":"Laḩij","capital":"admin","population":66288,"id":1887871834},{"name":"Al Maḩwīt","cityAsci":"Al Mahwit","lat":15.4701,"long":43.5448,"country":"Yemen","iso2":"YE","iso3":"YEM","region":"Al Maḩwīt","capital":"admin","id":1887764813},{"name":"Taizz","cityAsci":"Taizz","lat":13.6045,"long":44.0394,"country":"Yemen","iso2":"YE","iso3":"YEM","region":"Ta‘izz","capital":"admin","population":751000,"id":1887324526},{"name":"Sadah","cityAsci":"Sadah","lat":16.9398,"long":43.8498,"country":"Yemen","iso2":"YE","iso3":"YEM","region":"Şa‘dah","capital":"admin","population":105542,"id":1887513055},{"name":"Dhamar","cityAsci":"Dhamar","lat":14.5575,"long":44.3875,"country":"Yemen","iso2":"YE","iso3":"YEM","region":"Dhamār","capital":"admin","population":191259,"id":1887135215},{"name":"‘Amrān","cityAsci":"`Amran","lat":15.6594,"long":43.9439,"country":"Yemen","iso2":"YE","iso3":"YEM","region":"‘Amrān","capital":"admin","id":1887433410},{"name":"Aḑ Ḑāli‘","cityAsci":"Ad Dali`","lat":13.6957,"long":44.7314,"country":"Yemen","iso2":"YE","iso3":"YEM","region":"Aḑ Ḑāli‘","capital":"admin","id":1887607369},{"name":"Saywun","cityAsci":"Saywun","lat":15.943,"long":48.7873,"country":"Yemen","iso2":"YE","iso3":"YEM","region":"Ḩaḑramawt","capital":"minor","population":68747,"id":1887142998},{"name":"Al Bayda","cityAsci":"Al Bayda","lat":13.979,"long":45.574,"country":"Yemen","iso2":"YE","iso3":"YEM","region":"Al Bayḑā’","capital":"admin","population":37821,"id":1887788283},{"name":"Zinjibār","cityAsci":"Zinjibar","lat":13.1287,"long":45.3807,"country":"Yemen","iso2":"YE","iso3":"YEM","region":"Abyan","capital":"admin","id":1887645956},{"name":"Rida","cityAsci":"Rida","lat":14.4295,"long":44.8341,"country":"Yemen","iso2":"YE","iso3":"YEM","region":"Al Bayḑā’","capital":"minor","population":45233,"id":1887090855},{"name":"'Ataq","cityAsci":"'Ataq","lat":14.55,"long":46.8,"country":"Yemen","iso2":"YE","iso3":"YEM","region":"Shabwah","capital":"admin","population":37315,"id":1887172893},{"name":"Al Ghaydah","cityAsci":"Al Ghaydah","lat":16.2394,"long":52.1638,"country":"Yemen","iso2":"YE","iso3":"YEM","region":"Al Mahrah","capital":"admin","population":27404,"id":1887000479},{"name":"Sayhut","cityAsci":"Sayhut","lat":15.2105,"long":51.2454,"country":"Yemen","iso2":"YE","iso3":"YEM","region":"Al Mahrah","capital":"minor","population":189,"id":1887613470},{"name":"Al Mukalla","cityAsci":"Al Mukalla","lat":14.5412,"long":49.1259,"country":"Yemen","iso2":"YE","iso3":"YEM","region":"Ḩaḑramawt","capital":"admin","population":258132,"id":1887202594},{"name":"Al Ḩazm","cityAsci":"Al Hazm","lat":16.1641,"long":44.7769,"country":"Yemen","iso2":"YE","iso3":"YEM","region":"Al Jawf","capital":"admin","id":1887549671},{"name":"Zabīd","cityAsci":"Zabid","lat":14.1951,"long":43.3155,"country":"Yemen","iso2":"YE","iso3":"YEM","region":"Al Ḩudaydah","capital":"minor","population":152504,"id":1887877995},{"name":"Aden","cityAsci":"Aden","lat":12.7797,"long":45.0095,"country":"Yemen","iso2":"YE","iso3":"YEM","region":"‘Adan","capital":"admin","population":1000000,"id":1887867886},{"name":"Hadiboh","cityAsci":"Hadiboh","lat":12.6519,"long":54.0239,"country":"Yemen","iso2":"YE","iso3":"YEM","region":"Arkhabīl Suquţrá","capital":"admin","population":11396,"id":1887452377},{"name":"Ash Shihr","cityAsci":"Ash Shihr","lat":14.7593,"long":49.6092,"country":"Yemen","iso2":"YE","iso3":"YEM","region":"Ḩaḑramawt","capital":"minor","population":54274,"id":1887657562},{"name":"Dzaoudzi","cityAsci":"Dzaoudzi","lat":-12.7871,"long":45.275,"country":"Mayotte","iso2":"YT","iso3":"MYT","capital":"admin","population":32057,"id":1175099654},{"name":"Pretoria","cityAsci":"Pretoria","lat":-25.7069,"long":28.2294,"country":"South Africa","iso2":"ZA","iso3":"ZAF","region":"Gauteng","capital":"primary","population":1338000,"id":1710176249},{"name":"Lebowakgomo","cityAsci":"Lebowakgomo","lat":-24.1996,"long":29.5,"country":"South Africa","iso2":"ZA","iso3":"ZAF","region":"Limpopo","population":33308,"id":1710999076},{"name":"Potchefstroom","cityAsci":"Potchefstroom","lat":-26.6996,"long":27.1,"country":"South Africa","iso2":"ZA","iso3":"ZAF","region":"North West","population":123669,"id":1710838885},{"name":"Graaff Reinet","cityAsci":"Graaff Reinet","lat":-32.3,"long":24.54,"country":"South Africa","iso2":"ZA","iso3":"ZAF","region":"Eastern Cape","population":62896,"id":1710616617},{"name":"Rustenburg","cityAsci":"Rustenburg","lat":-25.65,"long":27.24,"country":"South Africa","iso2":"ZA","iso3":"ZAF","region":"North West","population":165976,"id":1710326039},{"name":"Brandfort","cityAsci":"Brandfort","lat":-28.6996,"long":26.47,"country":"South Africa","iso2":"ZA","iso3":"ZAF","region":"Free State","population":12091,"id":1710953731},{"name":"Vryheid","cityAsci":"Vryheid","lat":-27.76,"long":30.79,"country":"South Africa","iso2":"ZA","iso3":"ZAF","region":"KwaZulu-Natal","population":150012,"id":1710716158},{"name":"Vereeniging","cityAsci":"Vereeniging","lat":-26.6496,"long":27.96,"country":"South Africa","iso2":"ZA","iso3":"ZAF","region":"Gauteng","population":1074000,"id":1710271883},{"name":"Brits","cityAsci":"Brits","lat":-25.6296,"long":27.78,"country":"South Africa","iso2":"ZA","iso3":"ZAF","region":"North West","population":122497,"id":1710468143},{"name":"Bethlehem","cityAsci":"Bethlehem","lat":-28.2196,"long":28.3,"country":"South Africa","iso2":"ZA","iso3":"ZAF","region":"Free State","population":83654,"id":1710750307},{"name":"Ubomba","cityAsci":"Ubomba","lat":-27.5661,"long":32.0833,"country":"South Africa","iso2":"ZA","iso3":"ZAF","region":"KwaZulu-Natal","population":564,"id":1710203500},{"name":"Polokwane","cityAsci":"Polokwane","lat":-23.89,"long":29.45,"country":"South Africa","iso2":"ZA","iso3":"ZAF","region":"Limpopo","capital":"admin","population":220045,"id":1710908010},{"name":"Springbok","cityAsci":"Springbok","lat":-29.6667,"long":17.8833,"country":"South Africa","iso2":"ZA","iso3":"ZAF","region":"Northern Cape","population":10438,"id":1710894218},{"name":"Thohoyandou","cityAsci":"Thohoyandou","lat":-22.95,"long":30.48,"country":"South Africa","iso2":"ZA","iso3":"ZAF","region":"Limpopo","population":269707,"id":1710219075},{"name":"Pietermaritzburg","cityAsci":"Pietermaritzburg","lat":-29.61,"long":30.39,"country":"South Africa","iso2":"ZA","iso3":"ZAF","region":"KwaZulu-Natal","capital":"admin","population":750845,"id":1710690280},{"name":"Poffader","cityAsci":"Poffader","lat":-29.1329,"long":19.3834,"country":"South Africa","iso2":"ZA","iso3":"ZAF","region":"Northern Cape","population":4220,"id":1710817164},{"name":"Carnarvon","cityAsci":"Carnarvon","lat":-30.9496,"long":22.1333,"country":"South Africa","iso2":"ZA","iso3":"ZAF","region":"Northern Cape","population":5785,"id":1710331786},{"name":"Kroonstad","cityAsci":"Kroonstad","lat":-27.66,"long":27.21,"country":"South Africa","iso2":"ZA","iso3":"ZAF","region":"Free State","population":103992,"id":1710508288},{"name":"Alexander Bay","cityAsci":"Alexander Bay","lat":-28.6083,"long":16.5033,"country":"South Africa","iso2":"ZA","iso3":"ZAF","region":"Northern Cape","population":1500,"id":1710616152},{"name":"Bloemhof","cityAsci":"Bloemhof","lat":-27.6496,"long":25.59,"country":"South Africa","iso2":"ZA","iso3":"ZAF","region":"North West","population":17122,"id":1710321800},{"name":"Hermanus","cityAsci":"Hermanus","lat":-34.4096,"long":19.2299,"country":"South Africa","iso2":"ZA","iso3":"ZAF","region":"Western Cape","population":25153,"id":1710409701},{"name":"Bethal","cityAsci":"Bethal","lat":-26.4696,"long":29.45,"country":"South Africa","iso2":"ZA","iso3":"ZAF","region":"Mpumalanga","population":101919,"id":1710328253},{"name":"Upington","cityAsci":"Upington","lat":-28.46,"long":21.23,"country":"South Africa","iso2":"ZA","iso3":"ZAF","region":"Northern Cape","population":71373,"id":1710210449},{"name":"Tzaneen","cityAsci":"Tzaneen","lat":-23.8195,"long":30.17,"country":"South Africa","iso2":"ZA","iso3":"ZAF","region":"Limpopo","population":67245,"id":1710120942},{"name":"Vanhynsdorp","cityAsci":"Vanhynsdorp","lat":-31.6166,"long":18.7333,"country":"South Africa","iso2":"ZA","iso3":"ZAF","region":"Western Cape","population":3331,"id":1710187274},{"name":"Musina","cityAsci":"Musina","lat":-22.34,"long":30.03,"country":"South Africa","iso2":"ZA","iso3":"ZAF","region":"Limpopo","population":20191,"id":1710956370},{"name":"Kimberley","cityAsci":"Kimberley","lat":-28.7468,"long":24.77,"country":"South Africa","iso2":"ZA","iso3":"ZAF","region":"Northern Cape","capital":"admin","population":165264,"id":1710282622},{"name":"Durban","cityAsci":"Durban","lat":-29.865,"long":30.98,"country":"South Africa","iso2":"ZA","iso3":"ZAF","region":"KwaZulu-Natal","population":2729000,"id":1710149138},{"name":"Klerksdorp","cityAsci":"Klerksdorp","lat":-26.88,"long":26.62,"country":"South Africa","iso2":"ZA","iso3":"ZAF","region":"North West","population":178921,"id":1710416691},{"name":"Welkom","cityAsci":"Welkom","lat":-27.97,"long":26.73,"country":"South Africa","iso2":"ZA","iso3":"ZAF","region":"Free State","population":431944,"id":1710480365},{"name":"De Aar","cityAsci":"De Aar","lat":-30.65,"long":24,"country":"South Africa","iso2":"ZA","iso3":"ZAF","region":"Northern Cape","population":32318,"id":1710551900},{"name":"Prieska","cityAsci":"Prieska","lat":-29.6595,"long":22.73,"country":"South Africa","iso2":"ZA","iso3":"ZAF","region":"Northern Cape","population":11236,"id":1710649877},{"name":"Saldanha","cityAsci":"Saldanha","lat":-33.01,"long":17.93,"country":"South Africa","iso2":"ZA","iso3":"ZAF","region":"Western Cape","population":68284,"id":1710078862},{"name":"Middelburg","cityAsci":"Middelburg","lat":-31.5,"long":25.01,"country":"South Africa","iso2":"ZA","iso3":"ZAF","region":"Eastern Cape","population":18164,"id":1710010705},{"name":"Port St. Johns","cityAsci":"Port St. Johns","lat":-31.6279,"long":29.5283,"country":"South Africa","iso2":"ZA","iso3":"ZAF","region":"Eastern Cape","population":5939,"id":1710506018},{"name":"Volksrust","cityAsci":"Volksrust","lat":-27.3596,"long":29.89,"country":"South Africa","iso2":"ZA","iso3":"ZAF","region":"Mpumalanga","population":43378,"id":1710664906},{"name":"Ulundi","cityAsci":"Ulundi","lat":-28.3296,"long":31.41,"country":"South Africa","iso2":"ZA","iso3":"ZAF","region":"KwaZulu-Natal","population":20753,"id":1710823263},{"name":"Beaufort West","cityAsci":"Beaufort West","lat":-32.3496,"long":22.57,"country":"South Africa","iso2":"ZA","iso3":"ZAF","region":"Western Cape","population":44737,"id":1710940488},{"name":"Komatipoort","cityAsci":"Komatipoort","lat":-25.4096,"long":31.94,"country":"South Africa","iso2":"ZA","iso3":"ZAF","region":"Mpumalanga","population":20508,"id":1710137353},{"name":"Nelspruit","cityAsci":"Nelspruit","lat":-25.4745,"long":30.9703,"country":"South Africa","iso2":"ZA","iso3":"ZAF","region":"Mpumalanga","capital":"admin","id":1710114438},{"name":"Standerton","cityAsci":"Standerton","lat":-26.9395,"long":29.24,"country":"South Africa","iso2":"ZA","iso3":"ZAF","region":"Mpumalanga","population":74021,"id":1710222465},{"name":"Johannesburg","cityAsci":"Johannesburg","lat":-26.17,"long":28.03,"country":"South Africa","iso2":"ZA","iso3":"ZAF","region":"Gauteng","capital":"admin","population":3435000,"id":1710550792},{"name":"Kuruman","cityAsci":"Kuruman","lat":-27.4496,"long":23.42,"country":"South Africa","iso2":"ZA","iso3":"ZAF","region":"Northern Cape","population":10006,"id":1710332978},{"name":"Paarl","cityAsci":"Paarl","lat":-33.6996,"long":18.96,"country":"South Africa","iso2":"ZA","iso3":"ZAF","region":"Western Cape","population":187865,"id":1710440011},{"name":"Worcester","cityAsci":"Worcester","lat":-33.64,"long":19.4399,"country":"South Africa","iso2":"ZA","iso3":"ZAF","region":"Western Cape","population":127597,"id":1710498245},{"name":"Colesberg","cityAsci":"Colesberg","lat":-30.7195,"long":25.1,"country":"South Africa","iso2":"ZA","iso3":"ZAF","region":"Northern Cape","population":12423,"id":1710885210},{"name":"Umtata","cityAsci":"Umtata","lat":-31.58,"long":28.79,"country":"South Africa","iso2":"ZA","iso3":"ZAF","region":"Eastern Cape","population":137772,"id":1710651314},{"name":"Aliwal North","cityAsci":"Aliwal North","lat":-30.6896,"long":26.71,"country":"South Africa","iso2":"ZA","iso3":"ZAF","region":"Eastern Cape","population":44436,"id":1710445896},{"name":"Middelburg","cityAsci":"Middelburg","lat":-25.7596,"long":29.47,"country":"South Africa","iso2":"ZA","iso3":"ZAF","region":"Mpumalanga","population":154706,"id":1710495632},{"name":"Springs","cityAsci":"Springs","lat":-26.2696,"long":28.43,"country":"South Africa","iso2":"ZA","iso3":"ZAF","region":"Gauteng","population":236083,"id":1710058382},{"name":"Benoni","cityAsci":"Benoni","lat":-26.1496,"long":28.3299,"country":"South Africa","iso2":"ZA","iso3":"ZAF","region":"Gauteng","population":2986000,"id":1710880986},{"name":"Port Shepstone","cityAsci":"Port Shepstone","lat":-30.7195,"long":30.46,"country":"South Africa","iso2":"ZA","iso3":"ZAF","region":"KwaZulu-Natal","population":52793,"id":1710443227},{"name":"Oudtshoorn","cityAsci":"Oudtshoorn","lat":-33.58,"long":22.19,"country":"South Africa","iso2":"ZA","iso3":"ZAF","region":"Western Cape","population":76708,"id":1710502855},{"name":"Port Elizabeth","cityAsci":"Port Elizabeth","lat":-33.97,"long":25.6,"country":"South Africa","iso2":"ZA","iso3":"ZAF","region":"Eastern Cape","population":1021000,"id":1710918997},{"name":"Port Alfred","cityAsci":"Port Alfred","lat":-33.5995,"long":26.88,"country":"South Africa","iso2":"ZA","iso3":"ZAF","region":"Eastern Cape","population":17959,"id":1710920478},{"name":"East London","cityAsci":"East London","lat":-32.97,"long":27.87,"country":"South Africa","iso2":"ZA","iso3":"ZAF","region":"Eastern Cape","population":338627,"id":1710178149},{"name":"Mossel Bay","cityAsci":"Mossel Bay","lat":-34.17,"long":22.13,"country":"South Africa","iso2":"ZA","iso3":"ZAF","region":"Western Cape","population":16743,"id":1710597106},{"name":"Vryburg","cityAsci":"Vryburg","lat":-26.96,"long":24.73,"country":"South Africa","iso2":"ZA","iso3":"ZAF","region":"North West","population":49588,"id":1710969597},{"name":"Uitenhage","cityAsci":"Uitenhage","lat":-33.7596,"long":25.39,"country":"South Africa","iso2":"ZA","iso3":"ZAF","region":"Eastern Cape","population":228912,"id":1710276157},{"name":"Bhisho","cityAsci":"Bhisho","lat":-32.87,"long":27.39,"country":"South Africa","iso2":"ZA","iso3":"ZAF","region":"Eastern Cape","capital":"admin","population":160997,"id":1710672530},{"name":"Knysna","cityAsci":"Knysna","lat":-34.0329,"long":23.0333,"country":"South Africa","iso2":"ZA","iso3":"ZAF","region":"Western Cape","population":63106,"id":1710311704},{"name":"Queenstown","cityAsci":"Queenstown","lat":-31.8996,"long":26.88,"country":"South Africa","iso2":"ZA","iso3":"ZAF","region":"Eastern Cape","population":105309,"id":1710110028},{"name":"Cradock","cityAsci":"Cradock","lat":-32.1995,"long":25.61,"country":"South Africa","iso2":"ZA","iso3":"ZAF","region":"Eastern Cape","population":32898,"id":1710933404},{"name":"Bredasdorp","cityAsci":"Bredasdorp","lat":-34.5295,"long":20.03,"country":"South Africa","iso2":"ZA","iso3":"ZAF","region":"Western Cape","population":14936,"id":1710282172},{"name":"Swellendam","cityAsci":"Swellendam","lat":-34.0196,"long":20.43,"country":"South Africa","iso2":"ZA","iso3":"ZAF","region":"Western Cape","population":13674,"id":1710416218},{"name":"Ladysmith","cityAsci":"Ladysmith","lat":-28.5495,"long":29.78,"country":"South Africa","iso2":"ZA","iso3":"ZAF","region":"KwaZulu-Natal","population":47375,"id":1710998347},{"name":"George","cityAsci":"George","lat":-33.95,"long":22.45,"country":"South Africa","iso2":"ZA","iso3":"ZAF","region":"Western Cape","population":174582,"id":1710164136},{"name":"Grahamstown","cityAsci":"Grahamstown","lat":-33.2996,"long":26.52,"country":"South Africa","iso2":"ZA","iso3":"ZAF","region":"Eastern Cape","population":91548,"id":1710671857},{"name":"Mmabatho","cityAsci":"Mmabatho","lat":-25.83,"long":25.61,"country":"South Africa","iso2":"ZA","iso3":"ZAF","region":"North West","population":104428,"id":1710524815},{"name":"Mahikeng","cityAsci":"Mahikeng","lat":-25.8652,"long":25.6442,"country":"South Africa","iso2":"ZA","iso3":"ZAF","region":"North West","capital":"admin","id":1710965423},{"name":"Bloemfontein","cityAsci":"Bloemfontein","lat":-29.12,"long":26.2299,"country":"South Africa","iso2":"ZA","iso3":"ZAF","region":"Free State","capital":"primary","population":463064,"id":1710495933},{"name":"Cape Town","cityAsci":"Cape Town","lat":-33.92,"long":18.435,"country":"South Africa","iso2":"ZA","iso3":"ZAF","region":"Western Cape","capital":"primary","population":3215000,"id":1710680650},{"name":"Zambezi","cityAsci":"Zambezi","lat":-13.54,"long":23.1099,"country":"Zambia","iso2":"ZM","iso3":"ZMB","region":"North-Western","population":7074,"id":1894660797},{"name":"Solwezi","cityAsci":"Solwezi","lat":-12.1796,"long":26.4,"country":"Zambia","iso2":"ZM","iso3":"ZMB","region":"North-Western","capital":"admin","population":65000,"id":1894777820},{"name":"Lusaka","cityAsci":"Lusaka","lat":-15.4166,"long":28.2833,"country":"Zambia","iso2":"ZM","iso3":"ZMB","region":"Lusaka","capital":"primary","population":1328000,"id":1894157390},{"name":"Kaoma","cityAsci":"Kaoma","lat":-14.7796,"long":24.8,"country":"Zambia","iso2":"ZM","iso3":"ZMB","region":"Western","population":14212,"id":1894846267},{"name":"Chipata","cityAsci":"Chipata","lat":-13.6296,"long":32.64,"country":"Zambia","iso2":"ZM","iso3":"ZMB","region":"Eastern","capital":"admin","population":85963,"id":1894816262},{"name":"Senanga","cityAsci":"Senanga","lat":-16.1196,"long":23.27,"country":"Zambia","iso2":"ZM","iso3":"ZMB","region":"Western","population":10005,"id":1894742251},{"name":"Sesheke","cityAsci":"Sesheke","lat":-17.4695,"long":24.3,"country":"Zambia","iso2":"ZM","iso3":"ZMB","region":"Western","population":20149,"id":1894753767},{"name":"Chililabombwe","cityAsci":"Chililabombwe","lat":-12.3696,"long":27.82,"country":"Zambia","iso2":"ZM","iso3":"ZMB","region":"Copperbelt","population":82068,"id":1894950283},{"name":"Chingola","cityAsci":"Chingola","lat":-12.5396,"long":27.85,"country":"Zambia","iso2":"ZM","iso3":"ZMB","region":"Copperbelt","population":182015,"id":1894202007},{"name":"Kasempa","cityAsci":"Kasempa","lat":-13.4596,"long":25.82,"country":"Zambia","iso2":"ZM","iso3":"ZMB","region":"North-Western","population":5622,"id":1894152710},{"name":"Kitwe","cityAsci":"Kitwe","lat":-12.81,"long":28.22,"country":"Zambia","iso2":"ZM","iso3":"ZMB","region":"Copperbelt","population":404901,"id":1894321752},{"name":"Mufulira","cityAsci":"Mufulira","lat":-12.55,"long":28.26,"country":"Zambia","iso2":"ZM","iso3":"ZMB","region":"Copperbelt","population":153624,"id":1894907880},{"name":"Nchelenge","cityAsci":"Nchelenge","lat":-9.3496,"long":28.73,"country":"Zambia","iso2":"ZM","iso3":"ZMB","region":"Luapula","population":23693,"id":1894890604},{"name":"Mazabuka","cityAsci":"Mazabuka","lat":-15.86,"long":27.76,"country":"Zambia","iso2":"ZM","iso3":"ZMB","region":"Southern","population":64006,"id":1894390715},{"name":"Lukulu","cityAsci":"Lukulu","lat":-14.3896,"long":23.24,"country":"Zambia","iso2":"ZM","iso3":"ZMB","region":"Western","population":3349,"id":1894281443},{"name":"Kafue","cityAsci":"Kafue","lat":-15.78,"long":28.18,"country":"Zambia","iso2":"ZM","iso3":"ZMB","region":"Lusaka","population":47554,"id":1894930695},{"name":"Lundazi","cityAsci":"Lundazi","lat":-12.2895,"long":33.17,"country":"Zambia","iso2":"ZM","iso3":"ZMB","region":"Eastern","population":11635,"id":1894277247},{"name":"Mansa","cityAsci":"Mansa","lat":-11.2,"long":28.89,"country":"Zambia","iso2":"ZM","iso3":"ZMB","region":"Luapula","capital":"admin","population":42277,"id":1894038366},{"name":"Mwinilunga","cityAsci":"Mwinilunga","lat":-11.7396,"long":24.44,"country":"Zambia","iso2":"ZM","iso3":"ZMB","region":"North-Western","population":13798,"id":1894210586},{"name":"Mumbwa","cityAsci":"Mumbwa","lat":-14.9796,"long":27.07,"country":"Zambia","iso2":"ZM","iso3":"ZMB","region":"Central","population":19086,"id":1894568812},{"name":"Kalabo","cityAsci":"Kalabo","lat":-14.9896,"long":22.68,"country":"Zambia","iso2":"ZM","iso3":"ZMB","region":"Western","population":7731,"id":1894966417},{"name":"Nyimba","cityAsci":"Nyimba","lat":-14.5495,"long":30.81,"country":"Zambia","iso2":"ZM","iso3":"ZMB","region":"Eastern","population":1336,"id":1894088472},{"name":"Kapiri Mposhi","cityAsci":"Kapiri Mposhi","lat":-13.9696,"long":28.66,"country":"Zambia","iso2":"ZM","iso3":"ZMB","region":"Central","population":37942,"id":1894676779},{"name":"Kabwe","cityAsci":"Kabwe","lat":-14.44,"long":28.45,"country":"Zambia","iso2":"ZM","iso3":"ZMB","region":"Central","capital":"admin","population":188979,"id":1894711746},{"name":"Ndola","cityAsci":"Ndola","lat":-12.9999,"long":28.65,"country":"Zambia","iso2":"ZM","iso3":"ZMB","region":"Copperbelt","capital":"admin","population":396339,"id":1894032745},{"name":"Kasama","cityAsci":"Kasama","lat":-10.1996,"long":31.1799,"country":"Zambia","iso2":"ZM","iso3":"ZMB","region":"Northern","capital":"admin","population":200000,"id":1894305215},{"name":"Mbala","cityAsci":"Mbala","lat":-8.84,"long":31.37,"country":"Zambia","iso2":"ZM","iso3":"ZMB","region":"Northern","population":20570,"id":1894671312},{"name":"Kawambwa","cityAsci":"Kawambwa","lat":-9.7795,"long":29.08,"country":"Zambia","iso2":"ZM","iso3":"ZMB","region":"Luapula","population":20589,"id":1894964184},{"name":"Luanshya","cityAsci":"Luanshya","lat":-13.1333,"long":28.4,"country":"Zambia","iso2":"ZM","iso3":"ZMB","region":"Copperbelt","population":151993,"id":1894410334},{"name":"Mongu","cityAsci":"Mongu","lat":-15.2796,"long":23.12,"country":"Zambia","iso2":"ZM","iso3":"ZMB","region":"Western","capital":"admin","population":52534,"id":1894761291},{"name":"Mpika","cityAsci":"Mpika","lat":-11.83,"long":31.46,"country":"Zambia","iso2":"ZM","iso3":"ZMB","region":"Muchinga","population":28445,"id":1894224372},{"name":"Chinsali","cityAsci":"Chinsali","lat":-10.5496,"long":32.06,"country":"Zambia","iso2":"ZM","iso3":"ZMB","region":"Muchinga","capital":"admin","population":14015,"id":1894041491},{"name":"Livingstone","cityAsci":"Livingstone","lat":-17.86,"long":25.86,"country":"Zambia","iso2":"ZM","iso3":"ZMB","region":"Southern","population":165480,"id":1894634581},{"name":"Choma","cityAsci":"Choma","lat":-16.8095,"long":26.97,"country":"Zambia","iso2":"ZM","iso3":"ZMB","region":"Southern","capital":"admin","population":46746,"id":1894419971},{"name":"Plumtree","cityAsci":"Plumtree","lat":-20.4795,"long":27.82,"country":"Zimbabwe","iso2":"ZW","iso3":"ZWE","population":2148,"id":1716916272},{"name":"Kariba","cityAsci":"Kariba","lat":-16.5296,"long":28.8,"country":"Zimbabwe","iso2":"ZW","iso3":"ZWE","population":25531,"id":1716563536},{"name":"Hwange","cityAsci":"Hwange","lat":-18.37,"long":26.5,"country":"Zimbabwe","iso2":"ZW","iso3":"ZWE","population":33989,"id":1716416748},{"name":"Chiredzi","cityAsci":"Chiredzi","lat":-21.0496,"long":31.66,"country":"Zimbabwe","iso2":"ZW","iso3":"ZWE","population":28205,"id":1716636761},{"name":"Mazowe","cityAsci":"Mazowe","lat":-17.5196,"long":30.97,"country":"Zimbabwe","iso2":"ZW","iso3":"ZWE","region":"Mashonaland Central","population":9966,"id":1716608716},{"name":"Zvishavane","cityAsci":"Zvishavane","lat":-20.3296,"long":30.05,"country":"Zimbabwe","iso2":"ZW","iso3":"ZWE","region":"Masvingo","population":35896,"id":1716895095},{"name":"Shamva","cityAsci":"Shamva","lat":-17.3196,"long":31.57,"country":"Zimbabwe","iso2":"ZW","iso3":"ZWE","region":"Mashonaland Central","population":10317,"id":1716210091},{"name":"Harare","cityAsci":"Harare","lat":-17.8178,"long":31.0447,"country":"Zimbabwe","iso2":"ZW","iso3":"ZWE","region":"Harare","capital":"primary","population":1572000,"id":1716196799},{"name":"Kwekwe","cityAsci":"Kwekwe","lat":-18.9296,"long":29.8,"country":"Zimbabwe","iso2":"ZW","iso3":"ZWE","region":"Midlands","population":99149,"id":1716327793},{"name":"Kadoma","cityAsci":"Kadoma","lat":-18.33,"long":29.9099,"country":"Zimbabwe","iso2":"ZW","iso3":"ZWE","region":"Mashonaland West","population":79174,"id":1716398005},{"name":"Gwanda","cityAsci":"Gwanda","lat":-20.9396,"long":29.01,"country":"Zimbabwe","iso2":"ZW","iso3":"ZWE","region":"Matabeleland South","population":14450,"id":1716612305},{"name":"Chinhoyi","cityAsci":"Chinhoyi","lat":-17.3596,"long":30.18,"country":"Zimbabwe","iso2":"ZW","iso3":"ZWE","population":61739,"id":1716523245},{"name":"Beitbridge","cityAsci":"Beitbridge","lat":-22.2096,"long":29.99,"country":"Zimbabwe","iso2":"ZW","iso3":"ZWE","population":26459,"id":1716929295},{"name":"Mutare","cityAsci":"Mutare","lat":-18.97,"long":32.65,"country":"Zimbabwe","iso2":"ZW","iso3":"ZWE","region":"Manicaland","population":249365,"id":1716060405},{"name":"Gweru","cityAsci":"Gweru","lat":-19.45,"long":29.82,"country":"Zimbabwe","iso2":"ZW","iso3":"ZWE","population":183358,"id":1716621481},{"name":"Karoi","cityAsci":"Karoi","lat":-16.8196,"long":29.68,"country":"Zimbabwe","iso2":"ZW","iso3":"ZWE","region":"Mashonaland West","population":25030,"id":1716627056},{"name":"Masvingo","cityAsci":"Masvingo","lat":-20.0596,"long":30.82,"country":"Zimbabwe","iso2":"ZW","iso3":"ZWE","region":"Masvingo","population":76311,"id":1716049475},{"name":"Bulawayo","cityAsci":"Bulawayo","lat":-20.17,"long":28.58,"country":"Zimbabwe","iso2":"ZW","iso3":"ZWE","region":"Bulawayo","population":699385,"id":1716032632},{"name":"Victoria Falls","cityAsci":"Victoria Falls","lat":-17.9296,"long":25.84,"country":"Zimbabwe","iso2":"ZW","iso3":"ZWE","region":"Matabeleland North","population":35761,"id":1716149447},{"name":"Chitungwiza","cityAsci":"Chitungwiza","lat":-18,"long":31.1,"country":"Zimbabwe","iso2":"ZW","iso3":"ZWE","region":"Harare","population":340360,"id":1716688236},{"name":"Maqat","cityAsci":"Maqat","lat":47.6482,"long":53.3265,"country":"Kazakhstan","iso2":"KZ","iso3":"KAZ","region":"Atyraū","population":14082,"id":1398887034},{"name":"Zhangaozen","cityAsci":"Zhangaozen","lat":43.3004,"long":52.8,"country":"Kazakhstan","iso2":"KZ","iso3":"KAZ","region":"Mangghystaū","population":8895,"id":1398274968},{"name":"Taraz","cityAsci":"Taraz","lat":42.9,"long":71.365,"country":"Kazakhstan","iso2":"KZ","iso3":"KAZ","region":"Zhambyl","capital":"admin","population":358153,"id":1398626276},{"name":"Shymkent","cityAsci":"Shymkent","lat":42.32,"long":69.595,"country":"Kazakhstan","iso2":"KZ","iso3":"KAZ","region":"Ongtüstik Qazaqstan","capital":"admin","population":465392,"id":1398791401},{"name":"Oral","cityAsci":"Oral","lat":51.2711,"long":51.335,"country":"Kazakhstan","iso2":"KZ","iso3":"KAZ","region":"Batys Qazaqstan","capital":"admin","population":209788,"id":1398593972},{"name":"Balqash","cityAsci":"Balqash","lat":46.8532,"long":74.9502,"country":"Kazakhstan","iso2":"KZ","iso3":"KAZ","region":"Qaraghandy","population":81364,"id":1398134106},{"name":"Zaysan","cityAsci":"Zaysan","lat":47.4752,"long":84.8598,"country":"Kazakhstan","iso2":"KZ","iso3":"KAZ","region":"Shyghys Qazaqstan","population":17600,"id":1398700526},{"name":"Oytal","cityAsci":"Oytal","lat":42.9153,"long":73.2549,"country":"Kazakhstan","iso2":"KZ","iso3":"KAZ","region":"Zhambyl","population":22673,"id":1398816918},{"name":"Zholymbet","cityAsci":"Zholymbet","lat":51.7502,"long":71.7099,"country":"Kazakhstan","iso2":"KZ","iso3":"KAZ","region":"Aqmola","population":6876,"id":1398035914},{"name":"Serebryansk","cityAsci":"Serebryansk","lat":49.6999,"long":83.4249,"country":"Kazakhstan","iso2":"KZ","iso3":"KAZ","region":"Shyghys Qazaqstan","population":701,"id":1398188434},{"name":"Chapaev","cityAsci":"Chapaev","lat":50.1915,"long":51.1449,"country":"Kazakhstan","iso2":"KZ","iso3":"KAZ","region":"Batys Qazaqstan","population":6000,"id":1398386733},{"name":"Ridder","cityAsci":"Ridder","lat":50.3554,"long":83.5149,"country":"Kazakhstan","iso2":"KZ","iso3":"KAZ","region":"Shyghys Qazaqstan","population":56756,"id":1398556139},{"name":"Zhaltyr","cityAsci":"Zhaltyr","lat":51.6324,"long":69.8328,"country":"Kazakhstan","iso2":"KZ","iso3":"KAZ","region":"Aqmola","population":694,"id":1398809487},{"name":"Atbasar","cityAsci":"Atbasar","lat":51.8219,"long":68.3477,"country":"Kazakhstan","iso2":"KZ","iso3":"KAZ","region":"Aqmola","population":35819,"id":1398900162},{"name":"Aqsay","cityAsci":"Aqsay","lat":51.1714,"long":53.0349,"country":"Kazakhstan","iso2":"KZ","iso3":"KAZ","region":"Batys Qazaqstan","population":34799,"id":1398621920},{"name":"Shemonaikha","cityAsci":"Shemonaikha","lat":50.6316,"long":81.905,"country":"Kazakhstan","iso2":"KZ","iso3":"KAZ","region":"Shyghys Qazaqstan","population":27176,"id":1398507085},{"name":"Atasu","cityAsci":"Atasu","lat":48.6903,"long":71.6499,"country":"Kazakhstan","iso2":"KZ","iso3":"KAZ","region":"Qaraghandy","population":19616,"id":1398926180},{"name":"Rudny","cityAsci":"Rudny","lat":52.9527,"long":63.13,"country":"Kazakhstan","iso2":"KZ","iso3":"KAZ","region":"Qostanay","population":124000,"id":1398701954},{"name":"Makhambet","cityAsci":"Makhambet","lat":47.6714,"long":51.5798,"country":"Kazakhstan","iso2":"KZ","iso3":"KAZ","region":"Atyraū","population":8905,"id":1398232608},{"name":"Fort Shevchenko","cityAsci":"Fort Shevchenko","lat":44.5171,"long":50.2666,"country":"Kazakhstan","iso2":"KZ","iso3":"KAZ","region":"Mangghystaū","population":5213,"id":1398201971},{"name":"Qusmuryn","cityAsci":"Qusmuryn","lat":52.458,"long":64.6,"country":"Kazakhstan","iso2":"KZ","iso3":"KAZ","region":"Qostanay","population":8049,"id":1398335766},{"name":"Oktyabrsk","cityAsci":"Oktyabrsk","lat":49.4731,"long":57.4449,"country":"Kazakhstan","iso2":"KZ","iso3":"KAZ","region":"Aqtöbe","population":28196,"id":1398394723},{"name":"Khromtau","cityAsci":"Khromtau","lat":50.2699,"long":58.45,"country":"Kazakhstan","iso2":"KZ","iso3":"KAZ","region":"Aqtöbe","population":23715,"id":1398766984},{"name":"Algha","cityAsci":"Algha","lat":49.9032,"long":57.335,"country":"Kazakhstan","iso2":"KZ","iso3":"KAZ","region":"Aqtöbe","population":28267,"id":1398920371},{"name":"Embi","cityAsci":"Embi","lat":48.8268,"long":58.1442,"country":"Kazakhstan","iso2":"KZ","iso3":"KAZ","region":"Aqtöbe","population":18760,"id":1398915734},{"name":"Ushtobe","cityAsci":"Ushtobe","lat":45.2653,"long":77.97,"country":"Kazakhstan","iso2":"KZ","iso3":"KAZ","region":"Almaty","population":20492,"id":1398940566},{"name":"Burylbaytal","cityAsci":"Burylbaytal","lat":44.9387,"long":74.0303,"country":"Kazakhstan","iso2":"KZ","iso3":"KAZ","region":"Zhambyl","population":100,"id":1398655547},{"name":"Zhanibek","cityAsci":"Zhanibek","lat":49.4276,"long":46.8772,"country":"Kazakhstan","iso2":"KZ","iso3":"KAZ","region":"Batys Qazaqstan","population":8212,"id":1398255562},{"name":"Esil","cityAsci":"Esil","lat":51.957,"long":66.3775,"country":"Kazakhstan","iso2":"KZ","iso3":"KAZ","region":"Aqmola","population":13504,"id":1398546225},{"name":"Derzhavinsk","cityAsci":"Derzhavinsk","lat":51.1021,"long":66.3075,"country":"Kazakhstan","iso2":"KZ","iso3":"KAZ","region":"Aqmola","population":15848,"id":1398070336},{"name":"Saryshaghan","cityAsci":"Saryshaghan","lat":46.1195,"long":73.6191,"country":"Kazakhstan","iso2":"KZ","iso3":"KAZ","region":"Qaraghandy","population":4365,"id":1398222668},{"name":"Turgay","cityAsci":"Turgay","lat":49.626,"long":63.499,"country":"Kazakhstan","iso2":"KZ","iso3":"KAZ","region":"Qostanay","population":5277,"id":1398845535},{"name":"Sarqan","cityAsci":"Sarqan","lat":45.4203,"long":79.9149,"country":"Kazakhstan","iso2":"KZ","iso3":"KAZ","region":"Almaty","population":76919,"id":1398159801},{"name":"Arqalyq","cityAsci":"Arqalyq","lat":50.2418,"long":66.8976,"country":"Kazakhstan","iso2":"KZ","iso3":"KAZ","region":"Qostanay","population":55521,"id":1398980293},{"name":"Shalqar","cityAsci":"Shalqar","lat":47.8363,"long":59.6141,"country":"Kazakhstan","iso2":"KZ","iso3":"KAZ","region":"Aqtöbe","population":27256,"id":1398440872},{"name":"Shieli","cityAsci":"Shieli","lat":44.167,"long":66.75,"country":"Kazakhstan","iso2":"KZ","iso3":"KAZ","region":"Qyzylorda","population":29832,"id":1398206798},{"name":"Bayghanin","cityAsci":"Bayghanin","lat":48.6917,"long":55.874,"country":"Kazakhstan","iso2":"KZ","iso3":"KAZ","region":"Aqtöbe","population":7657,"id":1398205914},{"name":"Zhezqazghan","cityAsci":"Zhezqazghan","lat":47.78,"long":67.77,"country":"Kazakhstan","iso2":"KZ","iso3":"KAZ","region":"Qaraghandy","population":104357,"id":1398121545},{"name":"Mangyshlak","cityAsci":"Mangyshlak","lat":43.6905,"long":51.1417,"country":"Kazakhstan","iso2":"KZ","iso3":"KAZ","region":"Mangghystaū","population":147443,"id":1398790140},{"name":"Zhosaly","cityAsci":"Zhosaly","lat":45.4877,"long":64.078,"country":"Kazakhstan","iso2":"KZ","iso3":"KAZ","region":"Qyzylorda","population":20065,"id":1398510696},{"name":"Beyneu","cityAsci":"Beyneu","lat":45.1834,"long":55.1,"country":"Kazakhstan","iso2":"KZ","iso3":"KAZ","region":"Mangghystaū","population":32452,"id":1398655445},{"name":"Qazaly","cityAsci":"Qazaly","lat":45.7628,"long":62.1075,"country":"Kazakhstan","iso2":"KZ","iso3":"KAZ","region":"Qyzylorda","population":6582,"id":1398983835},{"name":"Aral","cityAsci":"Aral","lat":46.8,"long":61.6666,"country":"Kazakhstan","iso2":"KZ","iso3":"KAZ","region":"Qyzylorda","population":33017,"id":1398109811},{"name":"Ayakoz","cityAsci":"Ayakoz","lat":47.9647,"long":80.4297,"country":"Kazakhstan","iso2":"KZ","iso3":"KAZ","region":"Shyghys Qazaqstan","population":45861,"id":1398040009},{"name":"Urzhar","cityAsci":"Urzhar","lat":47.1002,"long":81.6048,"country":"Kazakhstan","iso2":"KZ","iso3":"KAZ","region":"Shyghys Qazaqstan","population":14826,"id":1398461653},{"name":"Qapshaghay","cityAsci":"Qapshaghay","lat":43.8844,"long":77.0687,"country":"Kazakhstan","iso2":"KZ","iso3":"KAZ","region":"Almaty","population":42167,"id":1398594098},{"name":"Esik","cityAsci":"Esik","lat":43.3691,"long":77.4438,"country":"Kazakhstan","iso2":"KZ","iso3":"KAZ","region":"Almaty","population":35319,"id":1398166418},{"name":"Turkistan","cityAsci":"Turkistan","lat":43.3016,"long":68.2549,"country":"Kazakhstan","iso2":"KZ","iso3":"KAZ","region":"Ongtüstik Qazaqstan","population":97360,"id":1398398278},{"name":"Qaratau","cityAsci":"Qaratau","lat":43.1854,"long":70.46,"country":"Kazakhstan","iso2":"KZ","iso3":"KAZ","region":"Zhambyl","population":37881,"id":1398932329},{"name":"Sharbaqty","cityAsci":"Sharbaqty","lat":52.4999,"long":78.1499,"country":"Kazakhstan","iso2":"KZ","iso3":"KAZ","region":"Pavlodar","population":107,"id":1398705015},{"name":"Oostanay","cityAsci":"Oostanay","lat":53.2209,"long":63.6283,"country":"Kazakhstan","iso2":"KZ","iso3":"KAZ","region":"Qostanay","capital":"admin","population":236901,"id":1398455461},{"name":"Kachiry","cityAsci":"Kachiry","lat":53.0804,"long":76.09,"country":"Kazakhstan","iso2":"KZ","iso3":"KAZ","region":"Pavlodar","population":8931,"id":1398362078},{"name":"Kishkenekol","cityAsci":"Kishkenekol","lat":53.6368,"long":72.3414,"country":"Kazakhstan","iso2":"KZ","iso3":"KAZ","region":"Soltüstik Qazaqstan","population":6779,"id":1398061261},{"name":"Bulaevo","cityAsci":"Bulaevo","lat":54.9053,"long":70.44,"country":"Kazakhstan","iso2":"KZ","iso3":"KAZ","region":"Soltüstik Qazaqstan","population":9886,"id":1398659796},{"name":"Shonzhy","cityAsci":"Shonzhy","lat":43.5421,"long":79.4703,"country":"Kazakhstan","iso2":"KZ","iso3":"KAZ","region":"Almaty","population":3902,"id":1398268525},{"name":"Qyzylorda","cityAsci":"Qyzylorda","lat":44.8,"long":65.465,"country":"Kazakhstan","iso2":"KZ","iso3":"KAZ","region":"Qyzylorda","capital":"admin","population":300000,"id":1398248334},{"name":"Qaraghandy","cityAsci":"Qaraghandy","lat":49.885,"long":73.115,"country":"Kazakhstan","iso2":"KZ","iso3":"KAZ","region":"Qaraghandy","capital":"admin","population":451800,"id":1398274508},{"name":"Ertis","cityAsci":"Ertis","lat":53.3453,"long":75.4499,"country":"Kazakhstan","iso2":"KZ","iso3":"KAZ","region":"Pavlodar","population":9216,"id":1398172080},{"name":"Tayynsha","cityAsci":"Tayynsha","lat":53.8481,"long":69.7638,"country":"Kazakhstan","iso2":"KZ","iso3":"KAZ","region":"Soltüstik Qazaqstan","population":13148,"id":1398304928},{"name":"Qulan","cityAsci":"Qulan","lat":42.9204,"long":72.705,"country":"Kazakhstan","iso2":"KZ","iso3":"KAZ","region":"Zhambyl","population":13128,"id":1398525079},{"name":"Shu","cityAsci":"Shu","lat":43.5953,"long":73.7448,"country":"Kazakhstan","iso2":"KZ","iso3":"KAZ","region":"Zhambyl","population":42439,"id":1398834769},{"name":"Kentau","cityAsci":"Kentau","lat":43.5165,"long":68.5199,"country":"Kazakhstan","iso2":"KZ","iso3":"KAZ","region":"Ongtüstik Qazaqstan","population":57408,"id":1398997742},{"name":"Oskemen","cityAsci":"Oskemen","lat":49.99,"long":82.6149,"country":"Kazakhstan","iso2":"KZ","iso3":"KAZ","region":"Shyghys Qazaqstan","capital":"admin","population":319067,"id":1398371414},{"name":"Aqtau","cityAsci":"Aqtau","lat":43.6232,"long":51.2365,"country":"Kazakhstan","iso2":"KZ","iso3":"KAZ","region":"Mangghystaū","capital":"admin","population":4479,"id":1398046759},{"name":"Taldyqorghan","cityAsci":"Taldyqorghan","lat":45,"long":78.4,"country":"Kazakhstan","iso2":"KZ","iso3":"KAZ","region":"Almaty","capital":"admin","population":88380,"id":1398112507},{"name":"Astana","cityAsci":"Astana","lat":51.1811,"long":71.4278,"country":"Kazakhstan","iso2":"KZ","iso3":"KAZ","region":"Astana","capital":"primary","population":345604,"id":1398516045},{"name":"Aqtobe","cityAsci":"Aqtobe","lat":50.28,"long":57.17,"country":"Kazakhstan","iso2":"KZ","iso3":"KAZ","region":"Aqtöbe","capital":"admin","population":262457,"id":1398602716},{"name":"Kokshetau","cityAsci":"Kokshetau","lat":53.3,"long":69.42,"country":"Kazakhstan","iso2":"KZ","iso3":"KAZ","region":"Aqmola","capital":"admin","population":128873,"id":1398375387},{"name":"Petropavlovsk","cityAsci":"Petropavlovsk","lat":54.88,"long":69.22,"country":"Kazakhstan","iso2":"KZ","iso3":"KAZ","region":"Soltüstik Qazaqstan","capital":"admin","population":228238,"id":1398252858},{"name":"Pavlodar","cityAsci":"Pavlodar","lat":52.3,"long":76.95,"country":"Kazakhstan","iso2":"KZ","iso3":"KAZ","region":"Pavlodar","capital":"admin","population":329002,"id":1398790087},{"name":"Otar","cityAsci":"Otar","lat":43.5346,"long":75.2139,"country":"Kazakhstan","iso2":"KZ","iso3":"KAZ","region":"Zhambyl","population":11238,"id":1398243169},{"name":"Almaty","cityAsci":"Almaty","lat":43.325,"long":76.915,"country":"Kazakhstan","iso2":"KZ","iso3":"KAZ","region":"Almaty","capital":"admin","population":1209000,"id":1398351701},{"name":"Bestobe","cityAsci":"Bestobe","lat":52.4997,"long":73.0997,"country":"Kazakhstan","iso2":"KZ","iso3":"KAZ","region":"Aqmola","population":7189,"id":1398545422},{"name":"Arys","cityAsci":"Arys","lat":42.4369,"long":68.8048,"country":"Kazakhstan","iso2":"KZ","iso3":"KAZ","region":"Ongtüstik Qazaqstan","population":42648,"id":1398483570},{"name":"Lenger","cityAsci":"Lenger","lat":42.1899,"long":69.8799,"country":"Kazakhstan","iso2":"KZ","iso3":"KAZ","region":"Ongtüstik Qazaqstan","population":23058,"id":1398031838},{"name":"Aqsu","cityAsci":"Aqsu","lat":52.4502,"long":71.9597,"country":"Kazakhstan","iso2":"KZ","iso3":"KAZ","region":"Aqmola","population":8543,"id":1398268556},{"name":"Temirtau","cityAsci":"Temirtau","lat":50.065,"long":72.965,"country":"Kazakhstan","iso2":"KZ","iso3":"KAZ","region":"Qaraghandy","population":170600,"id":1398081646},{"name":"Makinsk","cityAsci":"Makinsk","lat":52.6404,"long":70.41,"country":"Kazakhstan","iso2":"KZ","iso3":"KAZ","region":"Aqmola","population":23020,"id":1398733675},{"name":"Osakarovka","cityAsci":"Osakarovka","lat":50.5799,"long":72.5699,"country":"Kazakhstan","iso2":"KZ","iso3":"KAZ","region":"Qaraghandy","population":7305,"id":1398243007},{"name":"Qarqaraly","cityAsci":"Qarqaraly","lat":49.4249,"long":75.4649,"country":"Kazakhstan","iso2":"KZ","iso3":"KAZ","region":"Qaraghandy","population":8195,"id":1398407379},{"name":"Ekibastuz","cityAsci":"Ekibastuz","lat":51.73,"long":75.3199,"country":"Kazakhstan","iso2":"KZ","iso3":"KAZ","region":"Pavlodar","population":127868,"id":1398583266},{"name":"Zyryanovsk","cityAsci":"Zyryanovsk","lat":49.7453,"long":84.2548,"country":"Kazakhstan","iso2":"KZ","iso3":"KAZ","region":"Shyghys Qazaqstan","population":49658,"id":1398361284},{"name":"Komsomolets","cityAsci":"Komsomolets","lat":53.7506,"long":62.0502,"country":"Kazakhstan","iso2":"KZ","iso3":"KAZ","region":"Qostanay","population":9838,"id":1398254114},{"name":"Baykonur","cityAsci":"Baykonur","lat":45.6914,"long":63.2413,"country":"Kazakhstan","iso2":"KZ","iso3":"KAZ","region":"Qyzylorda","population":36175,"id":1398535530},{"name":"Erymentau","cityAsci":"Erymentau","lat":51.6303,"long":73.1049,"country":"Kazakhstan","iso2":"KZ","iso3":"KAZ","region":"Aqmola","population":25141,"id":1398103059},{"name":"Qarazhal","cityAsci":"Qarazhal","lat":48.0253,"long":70.7999,"country":"Kazakhstan","iso2":"KZ","iso3":"KAZ","region":"Qaraghandy","population":22170,"id":1398149188},{"name":"Tobol","cityAsci":"Tobol","lat":52.698,"long":62.5749,"country":"Kazakhstan","iso2":"KZ","iso3":"KAZ","region":"Qostanay","population":7155,"id":1398858827},{"name":"Shar","cityAsci":"Shar","lat":49.6003,"long":81.0549,"country":"Kazakhstan","iso2":"KZ","iso3":"KAZ","region":"Shyghys Qazaqstan","population":9087,"id":1398393299},{"name":"Semey","cityAsci":"Semey","lat":50.435,"long":80.275,"country":"Kazakhstan","iso2":"KZ","iso3":"KAZ","region":"Shyghys Qazaqstan","population":311353,"id":1398405657},{"name":"Boralday","cityAsci":"Boralday","lat":43.3341,"long":76.8288,"country":"Kazakhstan","iso2":"KZ","iso3":"KAZ","region":"Almaty","population":20996,"id":1398737190},{"name":"Zhetiqara","cityAsci":"Zhetiqara","lat":52.193,"long":61.2399,"country":"Kazakhstan","iso2":"KZ","iso3":"KAZ","region":"Qostanay","population":46740,"id":1398276170},{"name":"Aqadyr","cityAsci":"Aqadyr","lat":48.2749,"long":72.8599,"country":"Kazakhstan","iso2":"KZ","iso3":"KAZ","region":"Qaraghandy","population":9710,"id":1398472084},{"name":"Zharkent","cityAsci":"Zharkent","lat":44.1616,"long":79.9801,"country":"Kazakhstan","iso2":"KZ","iso3":"KAZ","region":"Almaty","population":36496,"id":1398507500},{"name":"Qulsary","cityAsci":"Qulsary","lat":46.9833,"long":54.0165,"country":"Kazakhstan","iso2":"KZ","iso3":"KAZ","region":"Atyraū","population":37103,"id":1398141603},{"name":"Balyqshy","cityAsci":"Balyqshy","lat":47.0666,"long":51.8666,"country":"Kazakhstan","iso2":"KZ","iso3":"KAZ","region":"Atyraū","population":31624,"id":1398354265},{"name":"Atyrau","cityAsci":"Atyrau","lat":47.1127,"long":51.92,"country":"Kazakhstan","iso2":"KZ","iso3":"KAZ","region":"Atyraū","capital":"admin","population":182753,"id":1398169063},{"name":"Xiangkhoang","cityAsci":"Xiangkhoang","lat":19.3337,"long":103.3666,"country":"Laos","iso2":"LA","iso3":"LAO","region":"Xiangkhouang","population":5189,"id":1418829021},{"name":"Muang Phônsavan","cityAsci":"Muang Phonsavan","lat":19.45,"long":103.2167,"country":"Laos","iso2":"LA","iso3":"LAO","region":"Xiangkhouang","capital":"admin","id":1418378289},{"name":"Vientiane","cityAsci":"Vientiane","lat":17.9667,"long":102.6,"country":"Laos","iso2":"LA","iso3":"LAO","region":"Viangchan","capital":"primary","population":754000,"id":1418732714},{"name":"Ban Houayxay","cityAsci":"Ban Houayxay","lat":20.2775,"long":100.4128,"country":"Laos","iso2":"LA","iso3":"LAO","region":"Bokèo","capital":"admin","population":6347,"id":1418944950},{"name":"Muang Phôn-Hông","cityAsci":"Muang Phon-Hong","lat":18.4957,"long":102.4142,"country":"Laos","iso2":"LA","iso3":"LAO","region":"Viangchan","capital":"admin","id":1418592644},{"name":"Louang Namtha","cityAsci":"Louang Namtha","lat":20.95,"long":101.4167,"country":"Laos","iso2":"LA","iso3":"LAO","region":"Louangnamtha","capital":"admin","population":3225,"id":1418920136},{"name":"Phongsali","cityAsci":"Phongsali","lat":21.6833,"long":102.1,"country":"Laos","iso2":"LA","iso3":"LAO","region":"Phôngsali","capital":"admin","population":6000,"id":1418524729},{"name":"Thakhek","cityAsci":"Thakhek","lat":17.4112,"long":104.8361,"country":"Laos","iso2":"LA","iso3":"LAO","region":"Khammouan","capital":"admin","population":76928,"id":1418367677},{"name":"Muang Pakxan","cityAsci":"Muang Pakxan","lat":18.3826,"long":103.6586,"country":"Laos","iso2":"LA","iso3":"LAO","region":"Bolikhamxai","capital":"admin","id":1418088090},{"name":"Louangphrabang","cityAsci":"Louangphrabang","lat":19.8845,"long":102.1416,"country":"Laos","iso2":"LA","iso3":"LAO","region":"Louangphabang","capital":"admin","population":107142,"id":1418530759},{"name":"Xaignabouri","cityAsci":"Xaignabouri","lat":19.2505,"long":101.7501,"country":"Laos","iso2":"LA","iso3":"LAO","region":"Xaignabouli","capital":"admin","population":16200,"id":1418760593},{"name":"Savannakhet","cityAsci":"Savannakhet","lat":16.5376,"long":104.773,"country":"Laos","iso2":"LA","iso3":"LAO","region":"Savannakhét","capital":"admin","population":84898,"id":1418179232},{"name":"Lamam","cityAsci":"Lamam","lat":15.4171,"long":106.6946,"country":"Laos","iso2":"LA","iso3":"LAO","region":"Xékong","capital":"admin","id":1418159582},{"name":"Pakxe","cityAsci":"Pakxe","lat":15.1221,"long":105.8183,"country":"Laos","iso2":"LA","iso3":"LAO","region":"Champasak","capital":"admin","population":102775,"id":1418863956},{"name":"Attapu","cityAsci":"Attapu","lat":14.808,"long":106.839,"country":"Laos","iso2":"LA","iso3":"LAO","region":"Attapu","capital":"admin","population":4297,"id":1418894454},{"name":"Xam Nua","cityAsci":"Xam Nua","lat":20.4167,"long":104.0333,"country":"Laos","iso2":"LA","iso3":"LAO","region":"Houaphan","capital":"admin","population":38992,"id":1418975079},{"name":"Muang Xai","cityAsci":"Muang Xai","lat":20.6923,"long":101.9847,"country":"Laos","iso2":"LA","iso3":"LAO","region":"Oudômxai","capital":"admin","id":1418805827},{"name":"Saravan","cityAsci":"Saravan","lat":15.716,"long":106.427,"country":"Laos","iso2":"LA","iso3":"LAO","region":"Salavan","population":5521,"id":1418448631},{"name":"Champasak","cityAsci":"Champasak","lat":14.8833,"long":105.8667,"country":"Laos","iso2":"LA","iso3":"LAO","region":"Champasak","population":12994,"id":1418902447},{"name":"Beirut","cityAsci":"Beirut","lat":33.872,"long":35.5097,"country":"Lebanon","iso2":"LB","iso3":"LBN","region":"Beyrouth","capital":"primary","population":1846000,"id":1422847713},{"name":"Zahlé","cityAsci":"Zahle","lat":33.8501,"long":35.9042,"country":"Lebanon","iso2":"LB","iso3":"LBN","region":"Béqaa","capital":"admin","population":78145,"id":1422031285},{"name":"Baalbek","cityAsci":"Baalbek","lat":34.0058,"long":36.2181,"country":"Lebanon","iso2":"LB","iso3":"LBN","region":"Baalbek-Hermel","capital":"admin","id":1422694451},{"name":"B'abda","cityAsci":"B'abda","lat":33.8333,"long":35.5333,"country":"Lebanon","iso2":"LB","iso3":"LBN","region":"Mont-Liban","capital":"admin","population":9000,"id":1422639397},{"name":"Halba","cityAsci":"Halba","lat":34.5428,"long":36.0797,"country":"Lebanon","iso2":"LB","iso3":"LBN","region":"Aakkâr","capital":"admin","id":1422962727},{"name":"Saida","cityAsci":"Saida","lat":33.563,"long":35.3688,"country":"Lebanon","iso2":"LB","iso3":"LBN","region":"Liban-Sud","capital":"admin","population":173894,"id":1422897920},{"name":"Nabatiye et Tahta","cityAsci":"Nabatiye et Tahta","lat":33.3833,"long":35.45,"country":"Lebanon","iso2":"LB","iso3":"LBN","region":"Nabatîyé","capital":"admin","population":80000,"id":1422269278},{"name":"Trablous","cityAsci":"Trablous","lat":34.42,"long":35.87,"country":"Lebanon","iso2":"LB","iso3":"LBN","region":"Liban-Nord","capital":"admin","population":530000,"id":1422886065},{"name":"Castries","cityAsci":"Castries","lat":14.002,"long":-61,"country":"Saint Lucia","iso2":"LC","iso3":"LCA","region":"Castries","capital":"primary","population":37963,"id":1662922505},{"name":"Gamprin","cityAsci":"Gamprin","lat":47.2197,"long":9.5113,"country":"Liechtenstein","iso2":"LI","iso3":"LIE","region":"Gamprin","capital":"admin","id":1438568521},{"name":"Triesenberg","cityAsci":"Triesenberg","lat":47.1182,"long":9.5444,"country":"Liechtenstein","iso2":"LI","iso3":"LIE","region":"Triesenberg","capital":"admin","id":1438813592},{"name":"Schaan","cityAsci":"Schaan","lat":47.1661,"long":9.5096,"country":"Liechtenstein","iso2":"LI","iso3":"LIE","region":"Schaan","capital":"admin","id":1438982330},{"name":"Ruggell","cityAsci":"Ruggell","lat":47.2408,"long":9.5247,"country":"Liechtenstein","iso2":"LI","iso3":"LIE","region":"Ruggell","capital":"admin","id":1438787609},{"name":"Mauren","cityAsci":"Mauren","lat":47.2205,"long":9.5426,"country":"Liechtenstein","iso2":"LI","iso3":"LIE","region":"Mauren","capital":"admin","id":1438767966},{"name":"Eschen","cityAsci":"Eschen","lat":47.2109,"long":9.5216,"country":"Liechtenstein","iso2":"LI","iso3":"LIE","region":"Eschen","capital":"admin","id":1438692471},{"name":"Triesen","cityAsci":"Triesen","lat":47.1101,"long":9.524,"country":"Liechtenstein","iso2":"LI","iso3":"LIE","region":"Triesen","capital":"admin","id":1438826448},{"name":"Balzers","cityAsci":"Balzers","lat":47.0667,"long":9.5025,"country":"Liechtenstein","iso2":"LI","iso3":"LIE","region":"Balzers","capital":"admin","id":1438263000},{"name":"Vaduz","cityAsci":"Vaduz","lat":47.1337,"long":9.5167,"country":"Liechtenstein","iso2":"LI","iso3":"LIE","region":"Vaduz","capital":"primary","population":36281,"id":1438317747},{"name":"Planken","cityAsci":"Planken","lat":47.1844,"long":9.5436,"country":"Liechtenstein","iso2":"LI","iso3":"LIE","region":"Planken","capital":"admin","id":1438419168},{"name":"Schellenberg","cityAsci":"Schellenberg","lat":47.2325,"long":9.5463,"country":"Liechtenstein","iso2":"LI","iso3":"LIE","region":"Schellenberg","capital":"admin","id":1438649917},{"name":"Colombo","cityAsci":"Colombo","lat":6.932,"long":79.8578,"country":"Sri Lanka","iso2":"LK","iso3":"LKA","region":"Western","capital":"primary","population":217000,"id":1144251314},{"name":"Ratnapura","cityAsci":"Ratnapura","lat":6.693,"long":80.386,"country":"Sri Lanka","iso2":"LK","iso3":"LKA","region":"Sabaragamuwa","population":47832,"id":1144739208},{"name":"Matara","cityAsci":"Matara","lat":5.949,"long":80.5428,"country":"Sri Lanka","iso2":"LK","iso3":"LKA","region":"Southern","population":68244,"id":1144127163},{"name":"Sri Jawewardenepura Kotte","cityAsci":"Sri Jawewardenepura Kotte","lat":6.9,"long":79.95,"country":"Sri Lanka","iso2":"LK","iso3":"LKA","region":"Western","capital":"primary","population":115826,"id":1144239330},{"name":"Moratuwa","cityAsci":"Moratuwa","lat":6.7804,"long":79.88,"country":"Sri Lanka","iso2":"LK","iso3":"LKA","region":"Western","population":200000,"id":1144324309},{"name":"Anuradhapura","cityAsci":"Anuradhapura","lat":8.35,"long":80.3833,"country":"Sri Lanka","iso2":"LK","iso3":"LKA","region":"North Central","population":118302,"id":1144764835},{"name":"Galle","cityAsci":"Galle","lat":6.03,"long":80.24,"country":"Sri Lanka","iso2":"LK","iso3":"LKA","region":"Southern","population":99478,"id":1144191486},{"name":"Puttalan","cityAsci":"Puttalan","lat":8.033,"long":79.826,"country":"Sri Lanka","iso2":"LK","iso3":"LKA","region":"North Western","population":45661,"id":1144219740},{"name":"Kandy","cityAsci":"Kandy","lat":7.28,"long":80.67,"country":"Sri Lanka","iso2":"LK","iso3":"LKA","region":"Central","population":111701,"id":1144308408},{"name":"Badulla","cityAsci":"Badulla","lat":6.9837,"long":81.0499,"country":"Sri Lanka","iso2":"LK","iso3":"LKA","region":"Uva","population":47587,"id":1144962750},{"name":"Trincomalee","cityAsci":"Trincomalee","lat":8.569,"long":81.233,"country":"Sri Lanka","iso2":"LK","iso3":"LKA","region":"Eastern","population":108420,"id":1144417074},{"name":"Kilinochchi","cityAsci":"Kilinochchi","lat":9.4004,"long":80.3999,"country":"Sri Lanka","iso2":"LK","iso3":"LKA","region":"Northern","population":103717,"id":1144468936},{"name":"Batticaloa","cityAsci":"Batticaloa","lat":7.717,"long":81.7,"country":"Sri Lanka","iso2":"LK","iso3":"LKA","region":"Eastern","population":129222,"id":1144464659},{"name":"Jaffna","cityAsci":"Jaffna","lat":9.675,"long":80.005,"country":"Sri Lanka","iso2":"LK","iso3":"LKA","region":"Northern","population":250000,"id":1144005506},{"name":"Bopolu","cityAsci":"Bopolu","lat":7.0667,"long":-10.4875,"country":"Liberia","iso2":"LR","iso3":"LBR","region":"Gbarpolu","capital":"admin","id":1430414456},{"name":"Voinjama","cityAsci":"Voinjama","lat":8.4167,"long":-9.75,"country":"Liberia","iso2":"LR","iso3":"LBR","region":"Lofa","capital":"admin","population":26594,"id":1430858471},{"name":"Robertsport","cityAsci":"Robertsport","lat":6.7533,"long":-11.3686,"country":"Liberia","iso2":"LR","iso3":"LBR","region":"Grand Cape Mount","capital":"admin","population":11969,"id":1430885010},{"name":"Buchanan","cityAsci":"Buchanan","lat":5.9161,"long":-10.0525,"country":"Liberia","iso2":"LR","iso3":"LBR","region":"Grand Bassa","population":48315,"id":1430177860},{"name":"Monrovia","cityAsci":"Monrovia","lat":6.3106,"long":-10.8048,"country":"Liberia","iso2":"LR","iso3":"LBR","region":"Montserrado","capital":"primary","population":1041000,"id":1430477826},{"name":"Tubmanburg","cityAsci":"Tubmanburg","lat":6.8706,"long":-10.8211,"country":"Liberia","iso2":"LR","iso3":"LBR","region":"Bomi","capital":"admin","id":1430503114},{"name":"Buchanan","cityAsci":"Buchanan","lat":5.8811,"long":-10.0447,"country":"Liberia","iso2":"LR","iso3":"LBR","region":"Grand Bassa","capital":"admin","id":1430478203},{"name":"Zwedru","cityAsci":"Zwedru","lat":6.0704,"long":-8.13,"country":"Liberia","iso2":"LR","iso3":"LBR","region":"Grand Gedeh","capital":"admin","population":25678,"id":1430130578},{"name":"Barclayville","cityAsci":"Barclayville","lat":4.8,"long":-8.1667,"country":"Liberia","iso2":"LR","iso3":"LBR","region":"Grand Kru","capital":"admin","population":2733,"id":1430129873},{"name":"Rivercess","cityAsci":"Rivercess","lat":5.465,"long":-9.578,"country":"Liberia","iso2":"LR","iso3":"LBR","region":"River Cess","capital":"admin","population":2578,"id":1430708587},{"name":"Fish Town","cityAsci":"Fish Town","lat":5.1974,"long":-7.8758,"country":"Liberia","iso2":"LR","iso3":"LBR","region":"River Gee","capital":"admin","id":1430204172},{"name":"Gbarnga","cityAsci":"Gbarnga","lat":7.0104,"long":-9.49,"country":"Liberia","iso2":"LR","iso3":"LBR","region":"Bong","capital":"admin","population":45835,"id":1430269323},{"name":"Kakata","cityAsci":"Kakata","lat":6.526,"long":-10.349,"country":"Liberia","iso2":"LR","iso3":"LBR","region":"Margibi","capital":"admin","population":33945,"id":1430656307},{"name":"Sanniquellie","cityAsci":"Sanniquellie","lat":7.371,"long":-8.685,"country":"Liberia","iso2":"LR","iso3":"LBR","region":"Nimba","capital":"admin","population":11415,"id":1430949102},{"name":"Greenville","cityAsci":"Greenville","lat":5.0111,"long":-9.0388,"country":"Liberia","iso2":"LR","iso3":"LBR","region":"Sinoe","capital":"admin","population":10374,"id":1430362799},{"name":"Bensonville","cityAsci":"Bensonville","lat":6.4333,"long":-10.6,"country":"Liberia","iso2":"LR","iso3":"LBR","region":"Montserrado","capital":"admin","population":4089,"id":1430964557},{"name":"Harper","cityAsci":"Harper","lat":4.3754,"long":-7.717,"country":"Liberia","iso2":"LR","iso3":"LBR","region":"Maryland","capital":"admin","population":32661,"id":1430540258},{"name":"Maseru","cityAsci":"Maseru","lat":-29.3167,"long":27.4833,"country":"Lesotho","iso2":"LS","iso3":"LSO","region":"Maseru","capital":"primary","population":361324,"id":1426977668},{"name":"Mokhotlong","cityAsci":"Mokhotlong","lat":-29.291,"long":29.078,"country":"Lesotho","iso2":"LS","iso3":"LSO","region":"Mokhotlong","capital":"admin","population":8809,"id":1426785819},{"name":"Thaba-Tseka","cityAsci":"Thaba-Tseka","lat":-29.522,"long":28.6084,"country":"Lesotho","iso2":"LS","iso3":"LSO","region":"Thaba-Tseka","capital":"admin","id":1426611266},{"name":"Moyeni","cityAsci":"Moyeni","lat":-30.411,"long":27.716,"country":"Lesotho","iso2":"LS","iso3":"LSO","region":"Quthing","capital":"admin","population":24130,"id":1426618526},{"name":"Qacha’s Nek","cityAsci":"Qacha's Nek","lat":-30.1154,"long":28.6894,"country":"Lesotho","iso2":"LS","iso3":"LSO","region":"Qacha’s Nek","capital":"admin","id":1426361264},{"name":"Mafetang","cityAsci":"Mafetang","lat":-29.8166,"long":27.25,"country":"Lesotho","iso2":"LS","iso3":"LSO","region":"Mafeteng","capital":"admin","population":57059,"id":1426506047},{"name":"Hlotse","cityAsci":"Hlotse","lat":-28.878,"long":28.056,"country":"Lesotho","iso2":"LS","iso3":"LSO","region":"Leribe","capital":"admin","population":47675,"id":1426721246},{"name":"Teyateyaneng","cityAsci":"Teyateyaneng","lat":-29.153,"long":27.753,"country":"Lesotho","iso2":"LS","iso3":"LSO","region":"Berea","capital":"admin","population":5115,"id":1426159118},{"name":"Mohales Hoek","cityAsci":"Mohales Hoek","lat":-30.159,"long":27.48,"country":"Lesotho","iso2":"LS","iso3":"LSO","region":"Mohale’s Hoek","capital":"admin","population":24992,"id":1426343192},{"name":"Butha-Buthe","cityAsci":"Butha-Buthe","lat":-28.75,"long":28.25,"country":"Lesotho","iso2":"LS","iso3":"LSO","region":"Butha-Buthe","capital":"admin","population":16330,"id":1426574356},{"name":"Klaipėda","cityAsci":"Klaipeda","lat":55.7204,"long":21.1199,"country":"Lithuania","iso2":"LT","iso3":"LTU","region":"Klaipėdos Miestas","capital":"admin","population":192307,"id":1440897790},{"name":"Palanga","cityAsci":"Palanga","lat":55.9203,"long":21.071,"country":"Lithuania","iso2":"LT","iso3":"LTU","region":"Palangos Miestas","capital":"admin","id":1440868798},{"name":"Nida","cityAsci":"Nida","lat":55.3086,"long":20.9965,"country":"Lithuania","iso2":"LT","iso3":"LTU","region":"Neringa","capital":"admin","id":1440271703},{"name":"Kretinga","cityAsci":"Kretinga","lat":55.8888,"long":21.2445,"country":"Lithuania","iso2":"LT","iso3":"LTU","region":"Kretinga","capital":"admin","id":1440720895},{"name":"Tauragė","cityAsci":"Taurage","lat":55.2522,"long":22.2897,"country":"Lithuania","iso2":"LT","iso3":"LTU","region":"Tauragė","capital":"admin","id":1440115384},{"name":"Šilutė","cityAsci":"Silute","lat":55.3453,"long":21.4733,"country":"Lithuania","iso2":"LT","iso3":"LTU","region":"Šilutė","capital":"admin","id":1440568024},{"name":"Rietavas","cityAsci":"Rietavas","lat":55.7271,"long":21.9234,"country":"Lithuania","iso2":"LT","iso3":"LTU","region":"Rietavo","capital":"admin","id":1440780088},{"name":"Plungė","cityAsci":"Plunge","lat":55.9077,"long":21.8456,"country":"Lithuania","iso2":"LT","iso3":"LTU","region":"Plungė","capital":"admin","id":1440542185},{"name":"Šilalė","cityAsci":"Silale","lat":55.4898,"long":22.1869,"country":"Lithuania","iso2":"LT","iso3":"LTU","region":"Šilalė","capital":"admin","id":1440106904},{"name":"Visaginas","cityAsci":"Visaginas","lat":55.5968,"long":26.4398,"country":"Lithuania","iso2":"LT","iso3":"LTU","region":"Visaginas","capital":"admin","id":1440984232},{"name":"Zarasai","cityAsci":"Zarasai","lat":55.7322,"long":26.2512,"country":"Lithuania","iso2":"LT","iso3":"LTU","region":"Zarasai","capital":"admin","id":1440450872},{"name":"Ignalina","cityAsci":"Ignalina","lat":55.3406,"long":26.1605,"country":"Lithuania","iso2":"LT","iso3":"LTU","region":"Ignalina","capital":"admin","id":1440789779},{"name":"Utena","cityAsci":"Utena","lat":55.4976,"long":25.5992,"country":"Lithuania","iso2":"LT","iso3":"LTU","region":"Utena","capital":"admin","id":1440298742},{"name":"Švenčionys","cityAsci":"Svencionys","lat":55.133,"long":26.1595,"country":"Lithuania","iso2":"LT","iso3":"LTU","region":"Švenčionys","capital":"admin","id":1440170338},{"name":"Rokiškis","cityAsci":"Rokiskis","lat":55.9587,"long":25.5947,"country":"Lithuania","iso2":"LT","iso3":"LTU","region":"Rokiškis","capital":"admin","id":1440918695},{"name":"Molėtai","cityAsci":"Moletai","lat":55.2247,"long":25.4169,"country":"Lithuania","iso2":"LT","iso3":"LTU","region":"Molėtai","capital":"admin","id":1440110307},{"name":"Šalčininkai","cityAsci":"Salcininkai","lat":54.3086,"long":25.3868,"country":"Lithuania","iso2":"LT","iso3":"LTU","region":"Šalčininkai","capital":"admin","id":1440401402},{"name":"Vilnius","cityAsci":"Vilnius","lat":54.6834,"long":25.3166,"country":"Lithuania","iso2":"LT","iso3":"LTU","region":"Vilniaus Miestas","capital":"primary","population":542366,"id":1440887149},{"name":"Kupiškis","cityAsci":"Kupiskis","lat":55.8401,"long":24.9803,"country":"Lithuania","iso2":"LT","iso3":"LTU","region":"Kupiškis","capital":"admin","id":1440122297},{"name":"Trakai","cityAsci":"Trakai","lat":54.6399,"long":24.936,"country":"Lithuania","iso2":"LT","iso3":"LTU","region":"Trakai","capital":"admin","id":1440324561},{"name":"Biržai","cityAsci":"Birzai","lat":56.1986,"long":24.7521,"country":"Lithuania","iso2":"LT","iso3":"LTU","region":"Biržai","capital":"admin","id":1440132489},{"name":"Anykščiai","cityAsci":"Anyksciai","lat":55.5246,"long":25.1066,"country":"Lithuania","iso2":"LT","iso3":"LTU","region":"Anykščiai","capital":"admin","id":1440174702},{"name":"Telšiai","cityAsci":"Telsiai","lat":55.9831,"long":22.2343,"country":"Lithuania","iso2":"LT","iso3":"LTU","region":"Telšiai","capital":"admin","id":1440908000},{"name":"Kelmė","cityAsci":"Kelme","lat":55.6301,"long":22.9349,"country":"Lithuania","iso2":"LT","iso3":"LTU","region":"Kelmė","capital":"admin","id":1440476751},{"name":"Marijampolė","cityAsci":"Marijampole","lat":54.5599,"long":23.3541,"country":"Lithuania","iso2":"LT","iso3":"LTU","region":"Marijampolė","capital":"admin","id":1440180524},{"name":"Lazdijai","cityAsci":"Lazdijai","lat":54.2333,"long":23.5147,"country":"Lithuania","iso2":"LT","iso3":"LTU","region":"Lazdijai","capital":"admin","id":1440584882},{"name":"Šakiai","cityAsci":"Sakiai","lat":54.9534,"long":23.0478,"country":"Lithuania","iso2":"LT","iso3":"LTU","region":"Šakiai","capital":"admin","id":1440362808},{"name":"Radviliškis","cityAsci":"Radviliskis","lat":55.8111,"long":23.5411,"country":"Lithuania","iso2":"LT","iso3":"LTU","region":"Radviliškis","capital":"admin","id":1440712589},{"name":"Šiauliai","cityAsci":"Siauliai","lat":55.9386,"long":23.325,"country":"Lithuania","iso2":"LT","iso3":"LTU","region":"Šiaulių Miestas","capital":"admin","population":133528,"id":1440593416},{"name":"Birštonas","cityAsci":"Birstonas","lat":54.6048,"long":24.0311,"country":"Lithuania","iso2":"LT","iso3":"LTU","region":"Birštono","capital":"admin","id":1440134144},{"name":"Druskininkai","cityAsci":"Druskininkai","lat":54.0157,"long":23.987,"country":"Lithuania","iso2":"LT","iso3":"LTU","region":"Druskininkai","capital":"admin","id":1440489111},{"name":"Kėdainiai","cityAsci":"Kedainiai","lat":55.2878,"long":23.9727,"country":"Lithuania","iso2":"LT","iso3":"LTU","region":"Kėdainiai","capital":"admin","id":1440351434},{"name":"Alytus","cityAsci":"Alytus","lat":54.3964,"long":24.0414,"country":"Lithuania","iso2":"LT","iso3":"LTU","region":"Alytaus Miestas","capital":"admin","id":1440273296},{"name":"Prienai","cityAsci":"Prienai","lat":54.636,"long":23.9458,"country":"Lithuania","iso2":"LT","iso3":"LTU","region":"Prienai","capital":"admin","id":1440412268},{"name":"Elektrėnai","cityAsci":"Elektrenai","lat":54.7863,"long":24.6626,"country":"Lithuania","iso2":"LT","iso3":"LTU","region":"Elektrénai","capital":"admin","id":1440272776},{"name":"Kaunas","cityAsci":"Kaunas","lat":54.9504,"long":23.88,"country":"Lithuania","iso2":"LT","iso3":"LTU","region":"Kauno Miestas","capital":"admin","population":374643,"id":1440302852},{"name":"Jonava","cityAsci":"Jonava","lat":55.0801,"long":24.2754,"country":"Lithuania","iso2":"LT","iso3":"LTU","region":"Jonava","capital":"admin","id":1440040612},{"name":"Kaišiadorys","cityAsci":"Kaisiadorys","lat":54.8653,"long":24.4682,"country":"Lithuania","iso2":"LT","iso3":"LTU","region":"Kaišiadorys","capital":"admin","id":1440257941},{"name":"Panevežys","cityAsci":"Panevezys","lat":55.74,"long":24.37,"country":"Lithuania","iso2":"LT","iso3":"LTU","region":"Panevėžio Miestas","capital":"admin","population":127405,"id":1440120065},{"name":"Joniškis","cityAsci":"Joniskis","lat":56.2394,"long":23.6154,"country":"Lithuania","iso2":"LT","iso3":"LTU","region":"Joniškis","capital":"admin","id":1440592411},{"name":"Kazlų Rūda","cityAsci":"Kazlu Ruda","lat":54.7497,"long":23.495,"country":"Lithuania","iso2":"LT","iso3":"LTU","region":"Kazlų Rūdos","capital":"admin","id":1440371651},{"name":"Vilkaviškis","cityAsci":"Vilkaviskis","lat":54.648,"long":23.0305,"country":"Lithuania","iso2":"LT","iso3":"LTU","region":"Vilkaviškis","capital":"admin","id":1440557692},{"name":"Pasvalys","cityAsci":"Pasvalys","lat":56.0625,"long":24.3997,"country":"Lithuania","iso2":"LT","iso3":"LTU","region":"Pasvalys","capital":"admin","id":1440957197},{"name":"Pakruojis","cityAsci":"Pakruojis","lat":55.9789,"long":23.8551,"country":"Lithuania","iso2":"LT","iso3":"LTU","region":"Pakruojis","capital":"admin","id":1440570493},{"name":"Raseiniai","cityAsci":"Raseiniai","lat":55.3797,"long":23.1239,"country":"Lithuania","iso2":"LT","iso3":"LTU","region":"Raseiniai","capital":"admin","id":1440481520},{"name":"Pagėgiai","cityAsci":"Pagegiai","lat":55.1379,"long":21.9138,"country":"Lithuania","iso2":"LT","iso3":"LTU","region":"Pagégiai","capital":"admin","id":1440724133},{"name":"Jurbarkas","cityAsci":"Jurbarkas","lat":55.0756,"long":22.7642,"country":"Lithuania","iso2":"LT","iso3":"LTU","region":"Jurbarkas","capital":"admin","id":1440845969},{"name":"Kalvarija","cityAsci":"Kalvarija","lat":54.4172,"long":23.2283,"country":"Lithuania","iso2":"LT","iso3":"LTU","region":"Kalvarijos","capital":"admin","id":1440799248},{"name":"Širvintos","cityAsci":"Sirvintos","lat":55.044,"long":24.9545,"country":"Lithuania","iso2":"LT","iso3":"LTU","region":"Širvintos","capital":"admin","id":1440054141},{"name":"Skuodas","cityAsci":"Skuodas","lat":56.2706,"long":21.5321,"country":"Lithuania","iso2":"LT","iso3":"LTU","region":"Skuodas","capital":"admin","id":1440264405},{"name":"Mažeikiai","cityAsci":"Mazeikiai","lat":56.3122,"long":22.3265,"country":"Lithuania","iso2":"LT","iso3":"LTU","region":"Mažeikiai","capital":"admin","id":1440746512},{"name":"Akmenė","cityAsci":"Akmene","lat":56.25,"long":22.75,"country":"Lithuania","iso2":"LT","iso3":"LTU","region":"Akmenė","capital":"admin","id":1440240618},{"name":"Ukmergė","cityAsci":"Ukmerge","lat":55.2494,"long":24.7636,"country":"Lithuania","iso2":"LT","iso3":"LTU","region":"Ukmergė","capital":"admin","id":1440784663},{"name":"Varėna","cityAsci":"Varena","lat":54.2155,"long":24.5754,"country":"Lithuania","iso2":"LT","iso3":"LTU","region":"Varėna","capital":"admin","id":1440933251},{"name":"Capellen","cityAsci":"Capellen","lat":49.645,"long":5.9908,"country":"Luxembourg","iso2":"LU","iso3":"LUX","region":"Capellen","capital":"admin","id":1442533571},{"name":"Esch-sur-Alzette","cityAsci":"Esch-sur-Alzette","lat":49.4958,"long":5.9806,"country":"Luxembourg","iso2":"LU","iso3":"LUX","region":"Esch-sur-Alzette","capital":"admin","id":1442192663},{"name":"Remich","cityAsci":"Remich","lat":49.545,"long":6.3669,"country":"Luxembourg","iso2":"LU","iso3":"LUX","region":"Remich","capital":"admin","id":1442971283},{"name":"Echternach","cityAsci":"Echternach","lat":49.8056,"long":6.4222,"country":"Luxembourg","iso2":"LU","iso3":"LUX","region":"Echternach","capital":"admin","id":1442794725},{"name":"Mersch","cityAsci":"Mersch","lat":49.7489,"long":6.1061,"country":"Luxembourg","iso2":"LU","iso3":"LUX","region":"Mersch","capital":"admin","id":1442283324},{"name":"Redange-sur-Attert","cityAsci":"Redange-sur-Attert","lat":49.7656,"long":5.8908,"country":"Luxembourg","iso2":"LU","iso3":"LUX","region":"Redange","capital":"admin","id":1442099691},{"name":"Vianden","cityAsci":"Vianden","lat":49.935,"long":6.2089,"country":"Luxembourg","iso2":"LU","iso3":"LUX","region":"Vianden","capital":"admin","id":1442979391},{"name":"Wiltz","cityAsci":"Wiltz","lat":49.9689,"long":5.9319,"country":"Luxembourg","iso2":"LU","iso3":"LUX","region":"Wiltz","capital":"admin","id":1442345477},{"name":"Clervaux","cityAsci":"Clervaux","lat":50.0547,"long":6.0314,"country":"Luxembourg","iso2":"LU","iso3":"LUX","region":"Clervaux","capital":"admin","id":1442118762},{"name":"Diekirch","cityAsci":"Diekirch","lat":49.8833,"long":6.1667,"country":"Luxembourg","iso2":"LU","iso3":"LUX","region":"Diekirch","capital":"admin","population":6242,"id":1442382721},{"name":"Grevenmacher","cityAsci":"Grevenmacher","lat":49.7,"long":6.3333,"country":"Luxembourg","iso2":"LU","iso3":"LUX","region":"Grevenmacher","capital":"admin","population":3958,"id":1442392954},{"name":"Luxembourg","cityAsci":"Luxembourg","lat":49.6117,"long":6.13,"country":"Luxembourg","iso2":"LU","iso3":"LUX","region":"Luxembourg","capital":"primary","population":107260,"id":1442262731},{"name":"Skrunda","cityAsci":"Skrunda","lat":56.6833,"long":22.0167,"country":"Latvia","iso2":"LV","iso3":"LVA","region":"Skrundas Novads","capital":"admin","id":1428371210},{"name":"Daugavpils","cityAsci":"Daugavpils","lat":55.88,"long":26.51,"country":"Latvia","iso2":"LV","iso3":"LVA","region":"Daugavpils Novads","capital":"admin","population":111564,"id":1428924928},{"name":"Jēkabpils","cityAsci":"Jekabpils","lat":56.4833,"long":25.85,"country":"Latvia","iso2":"LV","iso3":"LVA","region":"Jēkabpils Novads","capital":"admin","id":1428885452},{"name":"Aglona","cityAsci":"Aglona","lat":56.1333,"long":27.0167,"country":"Latvia","iso2":"LV","iso3":"LVA","region":"Aglonas Novads","capital":"admin","id":1428424524},{"name":"Lielvārde","cityAsci":"Lielvarde","lat":56.7225,"long":24.805,"country":"Latvia","iso2":"LV","iso3":"LVA","region":"Lielvārdes Novads","capital":"admin","id":1428614074},{"name":"Saldus","cityAsci":"Saldus","lat":56.6667,"long":22.5,"country":"Latvia","iso2":"LV","iso3":"LVA","region":"Saldus Novads","capital":"admin","id":1428774997},{"name":"Ozolnieki","cityAsci":"Ozolnieki","lat":56.6864,"long":23.7878,"country":"Latvia","iso2":"LV","iso3":"LVA","region":"Ozolnieku Novads","capital":"admin","id":1428973455},{"name":"Brocēni","cityAsci":"Broceni","lat":56.7,"long":22.5333,"country":"Latvia","iso2":"LV","iso3":"LVA","region":"Brocēnu Novads","capital":"admin","id":1428026538},{"name":"Jelgava","cityAsci":"Jelgava","lat":56.6527,"long":23.7128,"country":"Latvia","iso2":"LV","iso3":"LVA","region":"Jelgavas Novads","capital":"admin","population":67207,"id":1428370571},{"name":"Pilsrundāle","cityAsci":"Pilsrundale","lat":56.4167,"long":24,"country":"Latvia","iso2":"LV","iso3":"LVA","region":"Rundāles Novads","capital":"admin","id":1428889985},{"name":"Dobele","cityAsci":"Dobele","lat":56.625,"long":23.2786,"country":"Latvia","iso2":"LV","iso3":"LVA","region":"Dobeles Novads","capital":"admin","id":1428641580},{"name":"Iecava","cityAsci":"Iecava","lat":56.5986,"long":24.2022,"country":"Latvia","iso2":"LV","iso3":"LVA","region":"Iecavas Novads","capital":"admin","id":1428743931},{"name":"Jaunpils","cityAsci":"Jaunpils","lat":56.7325,"long":23.0136,"country":"Latvia","iso2":"LV","iso3":"LVA","region":"Jaunpils Novads","capital":"admin","id":1428617492},{"name":"Auce","cityAsci":"Auce","lat":56.4667,"long":22.8833,"country":"Latvia","iso2":"LV","iso3":"LVA","region":"Auces Novads","capital":"admin","id":1428962592},{"name":"Tukums","cityAsci":"Tukums","lat":56.9669,"long":23.1553,"country":"Latvia","iso2":"LV","iso3":"LVA","region":"Tukuma Novads","capital":"admin","id":1428304262},{"name":"Tērvete","cityAsci":"Tervete","lat":56.4781,"long":23.3867,"country":"Latvia","iso2":"LV","iso3":"LVA","region":"Tērvetes Novads","capital":"admin","id":1428176770},{"name":"Salacgrīva","cityAsci":"Salacgriva","lat":57.7531,"long":24.359,"country":"Latvia","iso2":"LV","iso3":"LVA","region":"Salacgrīvas Novads","capital":"admin","id":1428301933},{"name":"Ventspils","cityAsci":"Ventspils","lat":57.3899,"long":21.5606,"country":"Latvia","iso2":"LV","iso3":"LVA","region":"Ventspils","capital":"admin","population":42884,"id":1428112098},{"name":"Dundaga","cityAsci":"Dundaga","lat":57.505,"long":22.3504,"country":"Latvia","iso2":"LV","iso3":"LVA","region":"Dundagas Novads","capital":"admin","id":1428711022},{"name":"Jaunjelgava","cityAsci":"Jaunjelgava","lat":56.6132,"long":25.0832,"country":"Latvia","iso2":"LV","iso3":"LVA","region":"Jaunjelgavas Novads","capital":"admin","id":1428755180},{"name":"Nereta","cityAsci":"Nereta","lat":56.2044,"long":25.3077,"country":"Latvia","iso2":"LV","iso3":"LVA","region":"Neretas Novads","capital":"admin","id":1428242925},{"name":"Alsunga","cityAsci":"Alsunga","lat":56.9801,"long":21.564,"country":"Latvia","iso2":"LV","iso3":"LVA","region":"Alsungas Novads","capital":"admin","id":1428710208},{"name":"Kuldīga","cityAsci":"Kuldiga","lat":56.969,"long":21.968,"country":"Latvia","iso2":"LV","iso3":"LVA","region":"Kuldīgas Novads","capital":"admin","id":1428739306},{"name":"Pāvilosta","cityAsci":"Pavilosta","lat":56.8898,"long":21.1817,"country":"Latvia","iso2":"LV","iso3":"LVA","region":"Pāvilostas Novads","capital":"admin","id":1428955629},{"name":"Piņķi","cityAsci":"Pinki","lat":56.9419,"long":23.9137,"country":"Latvia","iso2":"LV","iso3":"LVA","region":"Babītes Novads","capital":"admin","id":1428171019},{"name":"Ādaži","cityAsci":"Adazi","lat":57.0705,"long":24.3371,"country":"Latvia","iso2":"LV","iso3":"LVA","region":"Ādažu Novads","capital":"admin","id":1428843734},{"name":"Kandava","cityAsci":"Kandava","lat":57.0389,"long":22.7724,"country":"Latvia","iso2":"LV","iso3":"LVA","region":"Kandavas Novads","capital":"admin","id":1428964284},{"name":"Roja","cityAsci":"Roja","lat":57.5015,"long":22.8088,"country":"Latvia","iso2":"LV","iso3":"LVA","region":"Rojas Novads","capital":"admin","id":1428577367},{"name":"Carnikava","cityAsci":"Carnikava","lat":57.1293,"long":24.2842,"country":"Latvia","iso2":"LV","iso3":"LVA","region":"Carnikavas Novads","capital":"admin","id":1428447982},{"name":"Garkalne","cityAsci":"Garkalne","lat":57.0449,"long":24.4195,"country":"Latvia","iso2":"LV","iso3":"LVA","region":"Garkalnes Novads","capital":"admin","id":1428447019},{"name":"Saulkrasti","cityAsci":"Saulkrasti","lat":57.2599,"long":24.4189,"country":"Latvia","iso2":"LV","iso3":"LVA","region":"Saulkrastu Novads","capital":"admin","id":1428934591},{"name":"Smārde","cityAsci":"Smarde","lat":56.9533,"long":23.3387,"country":"Latvia","iso2":"LV","iso3":"LVA","region":"Engures Novads","capital":"admin","id":1428580716},{"name":"Mērsrags","cityAsci":"Mersrags","lat":57.3364,"long":23.1235,"country":"Latvia","iso2":"LV","iso3":"LVA","region":"Mērsraga Novads","capital":"admin","id":1428954276},{"name":"Talsi","cityAsci":"Talsi","lat":57.2465,"long":22.5876,"country":"Latvia","iso2":"LV","iso3":"LVA","region":"Talsu Novads","capital":"admin","id":1428411666},{"name":"Jūrmala","cityAsci":"Jurmala","lat":56.9567,"long":23.7233,"country":"Latvia","iso2":"LV","iso3":"LVA","region":"Jūrmala","capital":"admin","id":1428952300},{"name":"Mārupe","cityAsci":"Marupe","lat":56.9032,"long":24.0467,"country":"Latvia","iso2":"LV","iso3":"LVA","region":"Mārupes Novads","capital":"admin","id":1428162714},{"name":"Ulbroka","cityAsci":"Ulbroka","lat":56.9363,"long":24.3039,"country":"Latvia","iso2":"LV","iso3":"LVA","region":"Stopiņu Novads","capital":"admin","id":1428511061},{"name":"Zilupe","cityAsci":"Zilupe","lat":56.386,"long":28.1218,"country":"Latvia","iso2":"LV","iso3":"LVA","region":"Zilupes Novads","capital":"admin","id":1428917349},{"name":"Ludza","cityAsci":"Ludza","lat":56.5396,"long":27.7189,"country":"Latvia","iso2":"LV","iso3":"LVA","region":"Ludzas Novads","capital":"admin","id":1428976928},{"name":"Dagda","cityAsci":"Dagda","lat":56.0961,"long":27.5328,"country":"Latvia","iso2":"LV","iso3":"LVA","region":"Dagdas Novads","capital":"admin","id":1428145757},{"name":"Baltinava","cityAsci":"Baltinava","lat":56.9439,"long":27.644,"country":"Latvia","iso2":"LV","iso3":"LVA","region":"Baltinavas Novads","capital":"admin","id":1428769707},{"name":"Cibla","cityAsci":"Cibla","lat":56.5498,"long":27.8837,"country":"Latvia","iso2":"LV","iso3":"LVA","region":"Ciblas Novads","capital":"admin","id":1428931914},{"name":"Kārsava","cityAsci":"Karsava","lat":56.7874,"long":27.6732,"country":"Latvia","iso2":"LV","iso3":"LVA","region":"Kārsavas Novads","capital":"admin","id":1428849607},{"name":"Riga","cityAsci":"Riga","lat":56.95,"long":24.1,"country":"Latvia","iso2":"LV","iso3":"LVA","region":"Rīga","capital":"primary","population":742572,"id":1428586192},{"name":"Krāslava","cityAsci":"Kraslava","lat":55.8969,"long":27.172,"country":"Latvia","iso2":"LV","iso3":"LVA","region":"Krāslavas Novads","capital":"admin","id":1428739484},{"name":"Limbaži","cityAsci":"Limbazi","lat":57.513,"long":24.724,"country":"Latvia","iso2":"LV","iso3":"LVA","region":"Limbažu Novads","capital":"admin","id":1428920312},{"name":"Preiļi","cityAsci":"Preili","lat":56.294,"long":26.7248,"country":"Latvia","iso2":"LV","iso3":"LVA","region":"Preiļu Novads","capital":"admin","id":1428460035},{"name":"Vecvārkava","cityAsci":"Vecvarkava","lat":56.1984,"long":26.5081,"country":"Latvia","iso2":"LV","iso3":"LVA","region":"Vārkavas Novads","capital":"admin","id":1428075811},{"name":"Ilūkste","cityAsci":"Ilukste","lat":55.9779,"long":26.2978,"country":"Latvia","iso2":"LV","iso3":"LVA","region":"Ilūkstes Novads","capital":"admin","id":1428832647},{"name":"Nīca","cityAsci":"Nica","lat":56.3456,"long":21.0646,"country":"Latvia","iso2":"LV","iso3":"LVA","region":"Nīcas Novads","capital":"admin","id":1428762389},{"name":"Bauska","cityAsci":"Bauska","lat":56.4079,"long":24.1944,"country":"Latvia","iso2":"LV","iso3":"LVA","region":"Bauskas Novads","capital":"admin","id":1428015452},{"name":"Viļaka","cityAsci":"Vilaka","lat":57.1843,"long":27.6719,"country":"Latvia","iso2":"LV","iso3":"LVA","region":"Viļakas Novads","capital":"admin","id":1428268339},{"name":"Līvāni","cityAsci":"Livani","lat":56.3567,"long":26.1761,"country":"Latvia","iso2":"LV","iso3":"LVA","region":"Līvānu Novads","capital":"admin","id":1428769984},{"name":"Alūksne","cityAsci":"Aluksne","lat":57.4216,"long":27.0466,"country":"Latvia","iso2":"LV","iso3":"LVA","region":"Alūksnes Novads","capital":"admin","id":1428873095},{"name":"Rēzekne","cityAsci":"Rezekne","lat":56.5,"long":27.3166,"country":"Latvia","iso2":"LV","iso3":"LVA","region":"Rēzekne","capital":"admin","population":38340,"id":1428895373},{"name":"Rugāji","cityAsci":"Rugaji","lat":57.0033,"long":27.1337,"country":"Latvia","iso2":"LV","iso3":"LVA","region":"Rugāju Novads","capital":"admin","id":1428746884},{"name":"Riebiņi","cityAsci":"Riebini","lat":56.3403,"long":26.7999,"country":"Latvia","iso2":"LV","iso3":"LVA","region":"Riebiņu Novads","capital":"admin","id":1428663476},{"name":"Viļāni","cityAsci":"Vilani","lat":56.5505,"long":26.9298,"country":"Latvia","iso2":"LV","iso3":"LVA","region":"Viļānu Novads","capital":"admin","id":1428636034},{"name":"Varakļāni","cityAsci":"Varaklani","lat":56.6091,"long":26.7547,"country":"Latvia","iso2":"LV","iso3":"LVA","region":"Varakļānu Novads","capital":"admin","id":1428435689},{"name":"Ape","cityAsci":"Ape","lat":57.5394,"long":26.694,"country":"Latvia","iso2":"LV","iso3":"LVA","region":"Apes Novads","capital":"admin","id":1428396055},{"name":"Madona","cityAsci":"Madona","lat":56.851,"long":26.2184,"country":"Latvia","iso2":"LV","iso3":"LVA","region":"Madonas Novads","capital":"admin","id":1428548117},{"name":"Jaunpiebalga","cityAsci":"Jaunpiebalga","lat":57.1775,"long":26.0284,"country":"Latvia","iso2":"LV","iso3":"LVA","region":"Jaunpiebalgas Novads","capital":"admin","id":1428003359},{"name":"Lubāna","cityAsci":"Lubana","lat":56.9043,"long":26.7161,"country":"Latvia","iso2":"LV","iso3":"LVA","region":"Lubānas Novads","capital":"admin","id":1428963436},{"name":"Gulbene","cityAsci":"Gulbene","lat":57.1734,"long":26.7527,"country":"Latvia","iso2":"LV","iso3":"LVA","region":"Gulbenes Novads","capital":"admin","id":1428888445},{"name":"Balvi","cityAsci":"Balvi","lat":57.1287,"long":27.27,"country":"Latvia","iso2":"LV","iso3":"LVA","region":"Balvu Novads","capital":"admin","id":1428606162},{"name":"Aknīste","cityAsci":"Akniste","lat":56.1615,"long":25.7482,"country":"Latvia","iso2":"LV","iso3":"LVA","region":"Aknīstes Novads","capital":"admin","id":1428363907},{"name":"Viesīte","cityAsci":"Viesite","lat":56.3465,"long":25.5581,"country":"Latvia","iso2":"LV","iso3":"LVA","region":"Viesītes Novads","capital":"admin","id":1428998036},{"name":"Cesvaine","cityAsci":"Cesvaine","lat":56.9675,"long":26.3076,"country":"Latvia","iso2":"LV","iso3":"LVA","region":"Cesvaines Novads","capital":"admin","id":1428611306},{"name":"Ķegums","cityAsci":"Kegums","lat":56.7455,"long":24.725,"country":"Latvia","iso2":"LV","iso3":"LVA","region":"Ķeguma Novads","capital":"admin","id":1428359846},{"name":"Vecpiebalga","cityAsci":"Vecpiebalga","lat":57.0618,"long":25.8179,"country":"Latvia","iso2":"LV","iso3":"LVA","region":"Vecpiebalgas Novads","capital":"admin","id":1428633596},{"name":"Smiltene","cityAsci":"Smiltene","lat":57.4242,"long":25.9017,"country":"Latvia","iso2":"LV","iso3":"LVA","region":"Smiltenes Novads","capital":"admin","id":1428035157},{"name":"Drabeši","cityAsci":"Drabesi","lat":57.2433,"long":25.2803,"country":"Latvia","iso2":"LV","iso3":"LVA","region":"Amatas Novads","capital":"admin","id":1428886151},{"name":"Cēsis","cityAsci":"Cesis","lat":57.3091,"long":25.2761,"country":"Latvia","iso2":"LV","iso3":"LVA","region":"Cēsu Novads","capital":"admin","id":1428840269},{"name":"Ērgļi","cityAsci":"Ergli","lat":56.8988,"long":25.6429,"country":"Latvia","iso2":"LV","iso3":"LVA","region":"Ērgļu Novads","capital":"admin","id":1428672513},{"name":"Valka","cityAsci":"Valka","lat":57.7767,"long":26.0118,"country":"Latvia","iso2":"LV","iso3":"LVA","region":"Valkas Novads","capital":"admin","id":1428763918},{"name":"Grobiņa","cityAsci":"Grobina","lat":56.5358,"long":21.1747,"country":"Latvia","iso2":"LV","iso3":"LVA","region":"Grobiņas Novads","capital":"admin","id":1428780265},{"name":"Strenči","cityAsci":"Strenci","lat":57.6269,"long":25.6919,"country":"Latvia","iso2":"LV","iso3":"LVA","region":"Strenču Novads","capital":"admin","id":1428746601},{"name":"Mūrmuiža","cityAsci":"Murmuiza","lat":57.4731,"long":25.4917,"country":"Latvia","iso2":"LV","iso3":"LVA","region":"Beverīnas Novads","capital":"admin","id":1428958481},{"name":"Mazsalaca","cityAsci":"Mazsalaca","lat":57.8619,"long":25.0547,"country":"Latvia","iso2":"LV","iso3":"LVA","region":"Mazsalacas Novads","capital":"admin","id":1428775090},{"name":"Aloja","cityAsci":"Aloja","lat":57.7672,"long":24.8774,"country":"Latvia","iso2":"LV","iso3":"LVA","region":"Alojas Novads","capital":"admin","id":1428805342},{"name":"Burtnieki","cityAsci":"Burtnieki","lat":57.6949,"long":25.275,"country":"Latvia","iso2":"LV","iso3":"LVA","region":"Burtnieku Novads","capital":"admin","id":1428423415},{"name":"Koknese","cityAsci":"Koknese","lat":56.6516,"long":25.4364,"country":"Latvia","iso2":"LV","iso3":"LVA","region":"Kokneses Novads","capital":"admin","id":1428876472},{"name":"Aizkraukle","cityAsci":"Aizkraukle","lat":56.6029,"long":25.2636,"country":"Latvia","iso2":"LV","iso3":"LVA","region":"Aizkraukles Novads","capital":"admin","id":1428407271},{"name":"Skrīveri","cityAsci":"Skriveri","lat":56.6485,"long":25.1195,"country":"Latvia","iso2":"LV","iso3":"LVA","region":"Skrīveru Novads","capital":"admin","id":1428849429},{"name":"Baldone","cityAsci":"Baldone","lat":56.7445,"long":24.4008,"country":"Latvia","iso2":"LV","iso3":"LVA","region":"Baldones Novads","capital":"admin","id":1428735750},{"name":"Vecumnieki","cityAsci":"Vecumnieki","lat":56.6061,"long":24.5223,"country":"Latvia","iso2":"LV","iso3":"LVA","region":"Vecumnieku Novads","capital":"admin","id":1428888119},{"name":"Sala","cityAsci":"Sala","lat":56.5047,"long":25.7618,"country":"Latvia","iso2":"LV","iso3":"LVA","region":"Salas Novads","capital":"admin","id":1428593161},{"name":"Pļaviņas","cityAsci":"Plavinas","lat":56.6177,"long":25.7194,"country":"Latvia","iso2":"LV","iso3":"LVA","region":"Pļaviņu Novads","capital":"admin","id":1428245037},{"name":"Liepaga","cityAsci":"Liepaga","lat":56.51,"long":21.01,"country":"Latvia","iso2":"LV","iso3":"LVA","region":"Liepāja","capital":"admin","population":85132,"id":1428511842},{"name":"Rūjiena","cityAsci":"Rujiena","lat":57.8961,"long":25.3342,"country":"Latvia","iso2":"LV","iso3":"LVA","region":"Rūjienas Novads","capital":"admin","id":1428387860},{"name":"Naukšēni","cityAsci":"Naukseni","lat":57.8842,"long":25.458,"country":"Latvia","iso2":"LV","iso3":"LVA","region":"Naukšēnu Novads","capital":"admin","id":1428372673},{"name":"Lieģi","cityAsci":"Liegi","lat":56.5797,"long":21.3338,"country":"Latvia","iso2":"LV","iso3":"LVA","region":"Durbes Novads","capital":"admin","id":1428643853},{"name":"Rauna","cityAsci":"Rauna","lat":57.3337,"long":25.6085,"country":"Latvia","iso2":"LV","iso3":"LVA","region":"Raunas Novads","capital":"admin","id":1428987270},{"name":"Aizpute","cityAsci":"Aizpute","lat":56.7211,"long":21.6016,"country":"Latvia","iso2":"LV","iso3":"LVA","region":"Aizputes Novads","capital":"admin","id":1428860274},{"name":"Kocēni","cityAsci":"Koceni","lat":57.5198,"long":25.3404,"country":"Latvia","iso2":"LV","iso3":"LVA","region":"Kocēnu Novads","capital":"admin","id":1428151958},{"name":"Valmiera","cityAsci":"Valmiera","lat":57.5387,"long":25.4257,"country":"Latvia","iso2":"LV","iso3":"LVA","region":"Valmiera","capital":"admin","id":1428524787},{"name":"Sigulda","cityAsci":"Sigulda","lat":57.1538,"long":24.8595,"country":"Latvia","iso2":"LV","iso3":"LVA","region":"Siguldas Novads","capital":"admin","id":1428703594},{"name":"Priekuļi","cityAsci":"Priekuli","lat":57.3115,"long":25.3571,"country":"Latvia","iso2":"LV","iso3":"LVA","region":"Priekuļu Novads","capital":"admin","id":1428165145},{"name":"Ogre","cityAsci":"Ogre","lat":56.8113,"long":24.6113,"country":"Latvia","iso2":"LV","iso3":"LVA","region":"Ogres Novads","capital":"admin","id":1428832851},{"name":"Ragana","cityAsci":"Ragana","lat":57.1821,"long":24.7056,"country":"Latvia","iso2":"LV","iso3":"LVA","region":"Krimuldas Novads","capital":"admin","id":1428990628},{"name":"Loja","cityAsci":"Loja","lat":57.1534,"long":24.6433,"country":"Latvia","iso2":"LV","iso3":"LVA","region":"Sējas Novads","capital":"admin","id":1428831058},{"name":"Ropaži","cityAsci":"Ropazi","lat":56.9747,"long":24.6329,"country":"Latvia","iso2":"LV","iso3":"LVA","region":"Ropažu Novads","capital":"admin","id":1428220999},{"name":"Priekule","cityAsci":"Priekule","lat":56.4458,"long":21.5939,"country":"Latvia","iso2":"LV","iso3":"LVA","region":"Priekules Novads","capital":"admin","id":1428340962},{"name":"Rucava","cityAsci":"Rucava","lat":56.164,"long":21.1627,"country":"Latvia","iso2":"LV","iso3":"LVA","region":"Rucavas Novads","capital":"admin","id":1428020890},{"name":"Salaspils","cityAsci":"Salaspils","lat":56.861,"long":24.3498,"country":"Latvia","iso2":"LV","iso3":"LVA","region":"Salaspils Novads","capital":"admin","id":1428270898},{"name":"Ikšķile","cityAsci":"Ikskile","lat":56.834,"long":24.4968,"country":"Latvia","iso2":"LV","iso3":"LVA","region":"Ikšķiles Novads","capital":"admin","id":1428284061},{"name":"Inčukalns","cityAsci":"Incukalns","lat":57.0987,"long":24.6863,"country":"Latvia","iso2":"LV","iso3":"LVA","region":"Inčukalna Novads","capital":"admin","id":1428675819},{"name":"Mālpils","cityAsci":"Malpils","lat":57.0101,"long":24.9578,"country":"Latvia","iso2":"LV","iso3":"LVA","region":"Mālpils Novads","capital":"admin","id":1428737728},{"name":"Olaine","cityAsci":"Olaine","lat":56.7947,"long":23.9358,"country":"Latvia","iso2":"LV","iso3":"LVA","region":"Olaines Novads","capital":"admin","id":1428220700},{"name":"Ķekava","cityAsci":"Kekava","lat":56.8296,"long":24.2318,"country":"Latvia","iso2":"LV","iso3":"LVA","region":"Ķekavas Novads","capital":"admin","id":1428331173},{"name":"Līgatne","cityAsci":"Ligatne","lat":57.2379,"long":25.0436,"country":"Latvia","iso2":"LV","iso3":"LVA","region":"Līgatnes Novads","capital":"admin","id":1428643118},{"name":"Stalbe","cityAsci":"Stalbe","lat":57.3708,"long":25.0324,"country":"Latvia","iso2":"LV","iso3":"LVA","region":"Pārgaujas Novads","capital":"admin","id":1428014091},{"name":"Vaiņode","cityAsci":"Vainode","lat":56.4185,"long":21.8541,"country":"Latvia","iso2":"LV","iso3":"LVA","region":"Vaiņodes Novads","capital":"admin","id":1428647067},{"name":"Tripoli","cityAsci":"Tripoli","lat":32.8925,"long":13.18,"country":"Libya","iso2":"LY","iso3":"LBY","region":"Ţarābulus","capital":"primary","population":2189000,"id":1434201852},{"name":"Gharyan","cityAsci":"Gharyan","lat":32.1704,"long":13.02,"country":"Libya","iso2":"LY","iso3":"LBY","region":"Al Jabal al Gharbī","capital":"admin","population":146810,"id":1434507846},{"name":"Surt","cityAsci":"Surt","lat":31.21,"long":16.59,"country":"Libya","iso2":"LY","iso3":"LBY","region":"Surt","capital":"admin","population":128123,"id":1434563640},{"name":"Marzuq","cityAsci":"Marzuq","lat":25.9044,"long":13.8972,"country":"Libya","iso2":"LY","iso3":"LBY","region":"Murzuq","capital":"admin","population":55071,"id":1434910333},{"name":"Sabha","cityAsci":"Sabha","lat":27.0333,"long":14.4333,"country":"Libya","iso2":"LY","iso3":"LBY","region":"Sabhā","capital":"admin","population":100249,"id":1434044820},{"name":"Misratah","cityAsci":"Misratah","lat":32.38,"long":15.1,"country":"Libya","iso2":"LY","iso3":"LBY","region":"Mişrātah","capital":"admin","population":386120,"id":1434518407},{"name":"Al ‘Azīzīyah","cityAsci":"Al `Aziziyah","lat":32.5319,"long":13.0175,"country":"Libya","iso2":"LY","iso3":"LBY","region":"Al Jafārah","capital":"admin","id":1434450111},{"name":"Zuwarah","cityAsci":"Zuwarah","lat":32.9344,"long":12.0791,"country":"Libya","iso2":"LY","iso3":"LBY","region":"An Nuqāţ al Khams","capital":"admin","population":180310,"id":1434206265},{"name":"Nalut","cityAsci":"Nalut","lat":31.8804,"long":10.97,"country":"Libya","iso2":"LY","iso3":"LBY","region":"Nālūt","capital":"admin","population":66609,"id":1434550258},{"name":"Hun","cityAsci":"Hun","lat":29.1167,"long":15.9333,"country":"Libya","iso2":"LY","iso3":"LBY","region":"Al Jufrah","capital":"admin","population":18878,"id":1434396501},{"name":"Darnah","cityAsci":"Darnah","lat":32.7648,"long":22.6391,"country":"Libya","iso2":"LY","iso3":"LBY","region":"Darnah","capital":"admin","population":127974,"id":1434920152},{"name":"Al Bayda","cityAsci":"Al Bayda","lat":32.7604,"long":21.62,"country":"Libya","iso2":"LY","iso3":"LBY","region":"Al Jabal al Akhḑar","capital":"admin","population":1794,"id":1434263017},{"name":"Az Zawiyah","cityAsci":"Az Zawiyah","lat":32.7604,"long":12.72,"country":"Libya","iso2":"LY","iso3":"LBY","region":"Az Zāwiyah","capital":"admin","population":200000,"id":1434421178},{"name":"Tajarhi","cityAsci":"Tajarhi","lat":24.3704,"long":14.4708,"country":"Libya","iso2":"LY","iso3":"LBY","population":1500,"id":1434443909},{"name":"Al Jaghbub","cityAsci":"Al Jaghbub","lat":29.7504,"long":24.5166,"country":"Libya","iso2":"LY","iso3":"LBY","population":1744,"id":1434128425},{"name":"Awjilah","cityAsci":"Awjilah","lat":29.108,"long":21.2869,"country":"Libya","iso2":"LY","iso3":"LBY","population":6610,"id":1434938770},{"name":"Al Khums","cityAsci":"Al Khums","lat":32.6604,"long":14.26,"country":"Libya","iso2":"LY","iso3":"LBY","region":"Al Marqab","capital":"admin","population":201943,"id":1434348717},{"name":"Ajdabiya","cityAsci":"Ajdabiya","lat":30.77,"long":20.22,"country":"Libya","iso2":"LY","iso3":"LBY","region":"Al Wāḩāt","capital":"admin","population":143833,"id":1434401280},{"name":"Al Kufrah","cityAsci":"Al Kufrah","lat":24.1667,"long":23.2696,"country":"Libya","iso2":"LY","iso3":"LBY","region":"Al Kufrah","capital":"admin","id":1434510625},{"name":"Al Jawf","cityAsci":"Al Jawf","lat":24.2,"long":23.29,"country":"Libya","iso2":"LY","iso3":"LBY","population":24132,"id":1434996940},{"name":"As Sidr","cityAsci":"As Sidr","lat":30.6704,"long":18.2666,"country":"Libya","iso2":"LY","iso3":"LBY","population":50,"id":1434673703},{"name":"Umm al Abid","cityAsci":"Umm al Abid","lat":27.517,"long":15.0333,"country":"Libya","iso2":"LY","iso3":"LBY","population":300,"id":1434373121},